{
  "path": {
    "type": "Feature",
    "properties": {
      "id": "76",
      "name": "N. 60th-S. 70 & S. 76th",
      "color": "#b41e8e",
      "pattern_id": "5919",
      "direction": "SOUTH"
    },
    "geometry": {
      "type": "LineString",
      "coordinates": [
        [
          -88.030155,
          43.178118279167
        ],
        [
          -88.03018182209,
          43.178380375543
        ],
        [
          -88.030305203705,
          43.178642470794
        ],
        [
          -88.030471500664,
          43.17894368335
        ],
        [
          -88.030643162041,
          43.179178393402
        ],
        [
          -88.031002578049,
          43.179538280397
        ],
        [
          -88.031447824745,
          43.179440485227
        ],
        [
          -88.03167849472,
          43.179420926175
        ],
        [
          -88.031919893532,
          43.179436573417
        ],
        [
          -88.032129105835,
          43.179483515121
        ],
        [
          -88.03233295372,
          43.179557839412
        ],
        [
          -88.032585081368,
          43.179718223098
        ],
        [
          -88.032751457673,
          43.179874435992
        ],
        [
          -88.032901661378,
          43.180101318932
        ],
        [
          -88.032998220902,
          43.180320377522
        ],
        [
          -88.033041136247,
          43.180547258804
        ],
        [
          -88.033078687173,
          43.180848461963
        ],
        [
          -88.033084791006,
          43.181164877276
        ],
        [
          -88.033057968916,
          43.18173598272
        ],
        [
          -88.033036511244,
          43.181978505333
        ],
        [
          -88.032939951719,
          43.182185822287
        ],
        [
          -88.032827298941,
          43.182330552574
        ],
        [
          -88.03269318849,
          43.182432254732
        ],
        [
          -88.032585900129,
          43.182471370902
        ],
        [
          -88.03206555158,
          43.182256231659
        ],
        [
          -88.03164406217,
          43.18211987742
        ],
        [
          -88.031450943121,
          43.182053379534
        ],
        [
          -88.030754635583,
          43.183562632761
        ],
        [
          -88.030711720239,
          43.183648686708
        ],
        [
          -88.029612014543,
          43.18342181695
        ],
        [
          -88.029349158059,
          43.183370966716
        ],
        [
          -88.029107759248,
          43.183355320482
        ],
        [
          -88.028142164002,
          43.183316204879
        ],
        [
          -88.027533279761,
          43.183232054456
        ],
        [
          -88.026685701713,
          43.183048210532
        ],
        [
          -88.026320921287,
          43.182942597814
        ],
        [
          -88.025779115066,
          43.182758753018
        ],
        [
          -88.025435792312,
          43.182641404987
        ],
        [
          -88.025081740722,
          43.182551438009
        ],
        [
          -88.024684773787,
          43.182484940593
        ],
        [
          -88.024369426588,
          43.182461917888
        ],
        [
          -88.024154849867,
          43.182458006271
        ],
        [
          -88.024232550928,
          43.181053484415
        ],
        [
          -88.024376077385,
          43.177589738508
        ],
        [
          -88.023850364418,
          43.177589738508
        ],
        [
          -88.020236666665,
          43.177625826601
        ],
        [
          -88.015741284356,
          43.177668857774
        ],
        [
          -88.015702915345,
          43.178729945807
        ],
        [
          -88.015681457673,
          43.179121130096
        ],
        [
          -88.014573488757,
          43.1791026318
        ],
        [
          -88.014219437167,
          43.179098719968
        ],
        [
          -88.014069233462,
          43.179098719968
        ],
        [
          -88.013902936503,
          43.179133926444
        ],
        [
          -88.013731275126,
          43.179219986633
        ],
        [
          -88.013441596553,
          43.179384283021
        ],
        [
          -88.013017807529,
          43.1791026318
        ],
        [
          -88.012813959643,
          43.178985276741
        ],
        [
          -88.012583289668,
          43.178887480686
        ],
        [
          -88.012341890857,
          43.178836626676
        ],
        [
          -88.0121165853,
          43.17881315558
        ],
        [
          -88.01154259257,
          43.178820979279
        ],
        [
          -88.011381660029,
          43.178828802978
        ],
        [
          -88.010605000002,
          43.178984670412
        ],
        [
          -88.009634040339,
          43.179211556658
        ],
        [
          -88.009435556871,
          43.178965111213
        ],
        [
          -88.00922098015,
          43.17878125444
        ],
        [
          -88.009097598536,
          43.178652163183
        ],
        [
          -88.009065412027,
          43.178566102194
        ],
        [
          -88.009062240078,
          43.178420317492
        ],
        [
          -88.00908369775,
          43.177720087806
        ],
        [
          -88.005036822089,
          43.177744160008
        ],
        [
          -87.999637759919,
          43.177689669469
        ],
        [
          -87.996729426589,
          43.177680317143
        ],
        [
          -87.992142031084,
          43.177645248025
        ],
        [
          -87.989662550926,
          43.177614090824
        ],
        [
          -87.984724062169,
          43.177550757439
        ],
        [
          -87.9845845873,
          43.177546845508
        ],
        [
          -87.984624737435,
          43.174867770172
        ],
        [
          -87.984729426587,
          43.170571542342
        ],
        [
          -87.984865782407,
          43.163290813443
        ],
        [
          -87.984920000001,
          43.162231613153
        ],
        [
          -87.984967759921,
          43.160908352202
        ],
        [
          -87.985046666667,
          43.158838279961
        ],
        [
          -87.985120208995,
          43.156918353132
        ],
        [
          -87.985348333334,
          43.151802922233
        ],
        [
          -87.985438022486,
          43.150071909836
        ],
        [
          -87.985518488756,
          43.149790123438
        ],
        [
          -87.985556039682,
          43.14881560213
        ],
        [
          -87.985630101853,
          43.146432269505
        ],
        [
          -87.985668279762,
          43.143654012642
        ],
        [
          -87.985735884261,
          43.14091133777
        ],
        [
          -87.985767550926,
          43.138588785279
        ],
        [
          -87.985794373016,
          43.137042567395
        ],
        [
          -87.985805101852,
          43.136846840824
        ],
        [
          -87.985842652779,
          43.136651113627
        ],
        [
          -87.986017706347,
          43.135980760186
        ],
        [
          -87.986164378306,
          43.135354387254
        ],
        [
          -87.986250208995,
          43.134931605405
        ],
        [
          -87.986282395503,
          43.1346340905
        ],
        [
          -87.986303853175,
          43.134113435932
        ],
        [
          -87.986303853176,
          43.132249018225
        ],
        [
          -87.986331607805,
          43.130738542692
        ],
        [
          -87.986331607805,
          43.130425347594
        ],
        [
          -87.986310150133,
          43.130147385602
        ],
        [
          -87.986261870371,
          43.129947721984
        ],
        [
          -87.986133124338,
          43.129614947837
        ],
        [
          -87.98599036442,
          43.12926828647
        ],
        [
          -87.985952813494,
          43.128927678538
        ],
        [
          -87.985985000002,
          43.128082023058
        ],
        [
          -87.98599036442,
          43.12678219647
        ],
        [
          -87.986043488758,
          43.124911111969
        ],
        [
          -87.986122915343,
          43.122641032679
        ],
        [
          -87.98622275992,
          43.119534024451
        ],
        [
          -87.986244791004,
          43.11614069278
        ],
        [
          -87.986291977512,
          43.112198025845
        ],
        [
          -87.986340884261,
          43.108705950019
        ],
        [
          -87.986417711639,
          43.105703176964
        ],
        [
          -87.986621559525,
          43.104931615531
        ],
        [
          -87.986707390213,
          43.104622204915
        ],
        [
          -87.986769217594,
          43.103843733313
        ],
        [
          -87.98680676852,
          43.101509365541
        ],
        [
          -87.986870675264,
          43.098703035906
        ],
        [
          -87.986907186506,
          43.097151116679
        ],
        [
          -87.986917395504,
          43.095671785624
        ],
        [
          -87.986960364417,
          43.093836786407
        ],
        [
          -87.987045155425,
          43.090235293075
        ],
        [
          -87.987054791005,
          43.089288117292
        ],
        [
          -87.987086977513,
          43.088273455439
        ],
        [
          -87.987140675264,
          43.086432871791
        ],
        [
          -87.987178279761,
          43.08462953911
        ],
        [
          -87.987251248678,
          43.082861293731
        ],
        [
          -87.987267915343,
          43.08163778598
        ],
        [
          -87.987294737435,
          43.081010125198
        ],
        [
          -87.987347341932,
          43.078761119801
        ],
        [
          -87.987389217593,
          43.075295680806
        ],
        [
          -87.987335573413,
          43.075221229722
        ],
        [
          -87.987351666667,
          43.074978283451
        ],
        [
          -87.987383333335,
          43.073626616841
        ],
        [
          -87.987425782407,
          43.072244632833
        ],
        [
          -87.987468697751,
          43.072134909952
        ],
        [
          -87.987511613095,
          43.071441300052
        ],
        [
          -87.987511613095,
          43.071002401598
        ],
        [
          -87.987474062169,
          43.070927945298
        ],
        [
          -87.987463333333,
          43.06996328366
        ],
        [
          -87.987504635582,
          43.068486934936
        ],
        [
          -87.987461720238,
          43.068079366831
        ],
        [
          -87.987472449074,
          43.067793283753
        ],
        [
          -87.987510000001,
          43.066268283815
        ],
        [
          -87.987537395503,
          43.064459546406
        ],
        [
          -87.987553488758,
          43.062643466349
        ],
        [
          -87.987591039683,
          43.060462203485
        ],
        [
          -87.98759051984,
          43.057261676823
        ],
        [
          -87.987596457671,
          43.055542574226
        ],
        [
          -87.98759051984,
          43.053153842454
        ],
        [
          -87.98760182209,
          43.050193565227
        ],
        [
          -87.98760182209,
          43.050048522079
        ],
        [
          -87.989852031086,
          43.05048084405
        ],
        [
          -87.991728124338,
          43.050884925118
        ],
        [
          -87.992328939157,
          43.051002526093
        ],
        [
          -87.992613253313,
          43.051053486446
        ],
        [
          -87.993015584665,
          43.051100526733
        ],
        [
          -87.994451875661,
          43.051258751331
        ],
        [
          -87.99682294843,
          43.051525311593
        ],
        [
          -87.996830417989,
          43.051191124485
        ],
        [
          -87.996824480158,
          43.048917979184
        ],
        [
          -87.996824480158,
          43.047436140056
        ],
        [
          -87.996856666666,
          43.047310691714
        ],
        [
          -87.99744494643,
          43.046251900995
        ],
        [
          -87.997541505955,
          43.046157812946
        ],
        [
          -87.997604839286,
          43.046026189256
        ],
        [
          -87.997615568122,
          43.04587329554
        ],
        [
          -87.997604839286,
          43.045696879241
        ],
        [
          -87.997551195106,
          43.045489099394
        ],
        [
          -87.997497550925,
          43.045391089787
        ],
        [
          -87.997470728835,
          43.043199554096
        ],
        [
          -87.99746,
          43.041543284857
        ],
        [
          -87.997445000001,
          43.038849951639
        ],
        [
          -87.997422968914,
          43.036016030771
        ],
        [
          -87.999755364416,
          43.035865154153
        ],
        [
          -88.002207968917,
          43.035714662727
        ],
        [
          -88.004676666666,
          43.035551425683
        ],
        [
          -88.007407155443,
          43.035253427731
        ],
        [
          -88.007410573414,
          43.034816223795
        ],
        [
          -88.007394426586,
          43.031303382487
        ],
        [
          -88.007361666668,
          43.028779952064
        ],
        [
          -88.007361666665,
          43.026293285503
        ],
        [
          -88.007351457673,
          43.023737404681
        ],
        [
          -88.007409426588,
          43.018328974308
        ],
        [
          -88.007452968916,
          43.016897329987
        ],
        [
          -88.007281307539,
          43.016297229251
        ],
        [
          -88.007222298941,
          43.01590500338
        ],
        [
          -88.0072285959,
          43.015054463964
        ],
        [
          -88.00733541799,
          43.01184005371
        ],
        [
          -88.007388542327,
          43.009288875584
        ],
        [
          -88.007426146826,
          43.006423490278
        ],
        [
          -88.007505573414,
          43.002891722469
        ],
        [
          -88.007510417991,
          43.001095468191
        ],
        [
          -88.007531355819,
          42.999264673331
        ],
        [
          -88.007542138228,
          42.997857704413
        ],
        [
          -88.007611875663,
          42.997759618741
        ],
        [
          -88.007644062171,
          42.997257417644
        ],
        [
          -88.007690208994,
          42.996375392571
        ],
        [
          -88.007711666666,
          42.995696620136
        ],
        [
          -88.00770093783,
          42.995237561696
        ],
        [
          -88.007808226191,
          42.995092388655
        ],
        [
          -88.007851141535,
          42.992557690567
        ],
        [
          -88.007759946428,
          42.992428206279
        ],
        [
          -88.007764791007,
          42.992163877406
        ],
        [
          -88.007791666668,
          42.988408287113
        ],
        [
          -88.007875937831,
          42.984776832826
        ],
        [
          -88.00796130225,
          42.98117290987
        ],
        [
          -88.008045000001,
          42.977456620914
        ],
        [
          -88.008125573411,
          42.973924579158
        ],
        [
          -88.008215208995,
          42.970454689273
        ],
        [
          -88.00825172024,
          42.968302322548
        ],
        [
          -88.008316666666,
          42.96662495471
        ],
        [
          -88.008373542326,
          42.964215877206
        ],
        [
          -88.008475519841,
          42.959515509778
        ],
        [
          -88.008475519841,
          42.959142550896
        ],
        [
          -88.006270744031,
          42.959134699106
        ],
        [
          -88.0062714,
          42.959035535035
        ],
        [
          -88.006297506506,
          42.956963741513
        ],
        [
          -88.006323596507,
          42.955744464079
        ]
      ]
    }
  },
  "stops": {
    "type": "FeatureCollection",
    "features": [
      {
        "type": "Feature",
        "properties": {
          "id": "6972",
          "name": "96TH STREET + BROWN DEER"
        },
        "geometry": {
          "type": "Point",
          "coordinates": [
            -88.030155,
            43.178118279167
          ]
        }
      },
      {
        "type": "Feature",
        "properties": {
          "id": "1249",
          "name": "BEATRICE + 9739 W."
        },
        "geometry": {
          "type": "Point",
          "coordinates": [
            -88.032751457673,
            43.179874435992
          ]
        }
      },
      {
        "type": "Feature",
        "properties": {
          "id": "6789",
          "name": "97TH STREET + 8950 N."
        },
        "geometry": {
          "type": "Point",
          "coordinates": [
            -88.033084791006,
            43.181164877276
          ]
        }
      },
      {
        "type": "Feature",
        "properties": {
          "id": "6790",
          "name": "MICHELE + 96TH STREET"
        },
        "geometry": {
          "type": "Point",
          "coordinates": [
            -88.03164406217,
            43.18211987742
          ]
        }
      },
      {
        "type": "Feature",
        "properties": {
          "id": "6791",
          "name": "96TH STREET + ALLYN"
        },
        "geometry": {
          "type": "Point",
          "coordinates": [
            -88.030754635583,
            43.183562632761
          ]
        }
      },
      {
        "type": "Feature",
        "properties": {
          "id": "6792",
          "name": "ALLYN + 95TH STREET"
        },
        "geometry": {
          "type": "Point",
          "coordinates": [
            -88.027533279761,
            43.183232054456
          ]
        }
      },
      {
        "type": "Feature",
        "properties": {
          "id": "6793",
          "name": "ALLYN + SWAN"
        },
        "geometry": {
          "type": "Point",
          "coordinates": [
            -88.024369426588,
            43.182461917888
          ]
        }
      },
      {
        "type": "Feature",
        "properties": {
          "id": "6794",
          "name": "SWAN + 9300 N."
        },
        "geometry": {
          "type": "Point",
          "coordinates": [
            -88.024232550928,
            43.181053484415
          ]
        }
      },
      {
        "type": "Feature",
        "properties": {
          "id": "6795",
          "name": "BROWN DEER + 91ST STREET"
        },
        "geometry": {
          "type": "Point",
          "coordinates": [
            -88.023850364418,
            43.177589738508
          ]
        }
      },
      {
        "type": "Feature",
        "properties": {
          "id": "6796",
          "name": "BROWN DEER + 8787 W."
        },
        "geometry": {
          "type": "Point",
          "coordinates": [
            -88.020236666665,
            43.177625826601
          ]
        }
      },
      {
        "type": "Feature",
        "properties": {
          "id": "6797",
          "name": "85TH STREET + BROWN DEER"
        },
        "geometry": {
          "type": "Point",
          "coordinates": [
            -88.015702915345,
            43.178729945807
          ]
        }
      },
      {
        "type": "Feature",
        "properties": {
          "id": "4909",
          "name": "BEATRICE + 8400 W."
        },
        "geometry": {
          "type": "Point",
          "coordinates": [
            -88.014573488757,
            43.1791026318
          ]
        }
      },
      {
        "type": "Feature",
        "properties": {
          "id": "298",
          "name": "NORTHRIDGE MALL + 8201 W."
        },
        "geometry": {
          "type": "Point",
          "coordinates": [
            -88.010605000002,
            43.178984670412
          ]
        }
      },
      {
        "type": "Feature",
        "properties": {
          "id": "2618",
          "name": "SERVITE + BROWN DEER"
        },
        "geometry": {
          "type": "Point",
          "coordinates": [
            -88.009062240078,
            43.178420317492
          ]
        }
      },
      {
        "type": "Feature",
        "properties": {
          "id": "4933",
          "name": "BROWN DEER + 76TH STREET"
        },
        "geometry": {
          "type": "Point",
          "coordinates": [
            -88.005036822089,
            43.177744160008
          ]
        }
      },
      {
        "type": "Feature",
        "properties": {
          "id": "4911",
          "name": "BROWN DEER + 72ND STREET"
        },
        "geometry": {
          "type": "Point",
          "coordinates": [
            -87.999637759919,
            43.177689669469
          ]
        }
      },
      {
        "type": "Feature",
        "properties": {
          "id": "6803",
          "name": "BROWN DEER + 6933 W."
        },
        "geometry": {
          "type": "Point",
          "coordinates": [
            -87.996729426589,
            43.177680317143
          ]
        }
      },
      {
        "type": "Feature",
        "properties": {
          "id": "4912",
          "name": "BROWN DEER + 66TH STREET"
        },
        "geometry": {
          "type": "Point",
          "coordinates": [
            -87.992142031084,
            43.177645248025
          ]
        }
      },
      {
        "type": "Feature",
        "properties": {
          "id": "6804",
          "name": "BROWN DEER + 64TH STREET"
        },
        "geometry": {
          "type": "Point",
          "coordinates": [
            -87.989662550926,
            43.177614090824
          ]
        }
      },
      {
        "type": "Feature",
        "properties": {
          "id": "4913",
          "name": "BROWN DEER + 60TH STREET"
        },
        "geometry": {
          "type": "Point",
          "coordinates": [
            -87.984724062169,
            43.177550757439
          ]
        }
      },
      {
        "type": "Feature",
        "properties": {
          "id": "6805",
          "name": "60TH STREET + WABASH"
        },
        "geometry": {
          "type": "Point",
          "coordinates": [
            -87.984624737435,
            43.174867770172
          ]
        }
      },
      {
        "type": "Feature",
        "properties": {
          "id": "6806",
          "name": "60TH STREET + DEAN"
        },
        "geometry": {
          "type": "Point",
          "coordinates": [
            -87.984729426587,
            43.170571542342
          ]
        }
      },
      {
        "type": "Feature",
        "properties": {
          "id": "6809",
          "name": "60TH STREET + BRADLEY"
        },
        "geometry": {
          "type": "Point",
          "coordinates": [
            -87.984865782407,
            43.163290813443
          ]
        }
      },
      {
        "type": "Feature",
        "properties": {
          "id": "1355",
          "name": "60TH STREET + 7932 N."
        },
        "geometry": {
          "type": "Point",
          "coordinates": [
            -87.984920000001,
            43.162231613153
          ]
        }
      },
      {
        "type": "Feature",
        "properties": {
          "id": "6811",
          "name": "60TH STREET + 7855 N."
        },
        "geometry": {
          "type": "Point",
          "coordinates": [
            -87.984967759921,
            43.160908352202
          ]
        }
      },
      {
        "type": "Feature",
        "properties": {
          "id": "6812",
          "name": "60TH STREET + PORT"
        },
        "geometry": {
          "type": "Point",
          "coordinates": [
            -87.985046666667,
            43.158838279961
          ]
        }
      },
      {
        "type": "Feature",
        "properties": {
          "id": "6813",
          "name": "60TH STREET + CALUMET"
        },
        "geometry": {
          "type": "Point",
          "coordinates": [
            -87.985120208995,
            43.156918353132
          ]
        }
      },
      {
        "type": "Feature",
        "properties": {
          "id": "6814",
          "name": "60TH STREET + HEMLOCK"
        },
        "geometry": {
          "type": "Point",
          "coordinates": [
            -87.985348333334,
            43.151802922233
          ]
        }
      },
      {
        "type": "Feature",
        "properties": {
          "id": "6815",
          "name": "60TH STREET + GOOD HOPE"
        },
        "geometry": {
          "type": "Point",
          "coordinates": [
            -87.985556039682,
            43.14881560213
          ]
        }
      },
      {
        "type": "Feature",
        "properties": {
          "id": "6816",
          "name": "60TH STREET + HELENA"
        },
        "geometry": {
          "type": "Point",
          "coordinates": [
            -87.985630101853,
            43.146432269505
          ]
        }
      },
      {
        "type": "Feature",
        "properties": {
          "id": "6817",
          "name": "60TH STREET + SPOKANE"
        },
        "geometry": {
          "type": "Point",
          "coordinates": [
            -87.985668279762,
            43.143654012642
          ]
        }
      },
      {
        "type": "Feature",
        "properties": {
          "id": "5749",
          "name": "60TH STREET + GREEN TREE"
        },
        "geometry": {
          "type": "Point",
          "coordinates": [
            -87.985735884261,
            43.14091133777
          ]
        }
      },
      {
        "type": "Feature",
        "properties": {
          "id": "5750",
          "name": "60TH STREET + 6657 N."
        },
        "geometry": {
          "type": "Point",
          "coordinates": [
            -87.985767550926,
            43.138588785279
          ]
        }
      },
      {
        "type": "Feature",
        "properties": {
          "id": "5751",
          "name": "60TH STREET + BRENTWOOD"
        },
        "geometry": {
          "type": "Point",
          "coordinates": [
            -87.986017706347,
            43.135980760186
          ]
        }
      },
      {
        "type": "Feature",
        "properties": {
          "id": "6818",
          "name": "60TH STREET + MILL"
        },
        "geometry": {
          "type": "Point",
          "coordinates": [
            -87.986303853175,
            43.134113435932
          ]
        }
      },
      {
        "type": "Feature",
        "properties": {
          "id": "1384",
          "name": "60TH STREET + 6312 N."
        },
        "geometry": {
          "type": "Point",
          "coordinates": [
            -87.986303853176,
            43.132249018225
          ]
        }
      },
      {
        "type": "Feature",
        "properties": {
          "id": "6819",
          "name": "60TH STREET + BENDER"
        },
        "geometry": {
          "type": "Point",
          "coordinates": [
            -87.986133124338,
            43.129614947837
          ]
        }
      },
      {
        "type": "Feature",
        "properties": {
          "id": "3013",
          "name": "60TH STREET + FLORIST"
        },
        "geometry": {
          "type": "Point",
          "coordinates": [
            -87.98599036442,
            43.12678219647
          ]
        }
      },
      {
        "type": "Feature",
        "properties": {
          "id": "1157",
          "name": "60TH STREET + BOBOLINK"
        },
        "geometry": {
          "type": "Point",
          "coordinates": [
            -87.986043488758,
            43.124911111969
          ]
        }
      },
      {
        "type": "Feature",
        "properties": {
          "id": "1165",
          "name": "60TH STREET + CARMEN"
        },
        "geometry": {
          "type": "Point",
          "coordinates": [
            -87.986122915343,
            43.122641032679
          ]
        }
      },
      {
        "type": "Feature",
        "properties": {
          "id": "1221",
          "name": "60TH STREET + SILVER SPRING"
        },
        "geometry": {
          "type": "Point",
          "coordinates": [
            -87.98622275992,
            43.119534024451
          ]
        }
      },
      {
        "type": "Feature",
        "properties": {
          "id": "1229",
          "name": "60TH STREET + CUSTER"
        },
        "geometry": {
          "type": "Point",
          "coordinates": [
            -87.986244791004,
            43.11614069278
          ]
        }
      },
      {
        "type": "Feature",
        "properties": {
          "id": "1240",
          "name": "60TH STREET + VILLARD"
        },
        "geometry": {
          "type": "Point",
          "coordinates": [
            -87.986291977512,
            43.112198025845
          ]
        }
      },
      {
        "type": "Feature",
        "properties": {
          "id": "133",
          "name": "60TH STREET + FAIRMOUNT"
        },
        "geometry": {
          "type": "Point",
          "coordinates": [
            -87.986340884261,
            43.108705950019
          ]
        }
      },
      {
        "type": "Feature",
        "properties": {
          "id": "134",
          "name": "60TH STREET + HAMPTON"
        },
        "geometry": {
          "type": "Point",
          "coordinates": [
            -87.986621559525,
            43.104931615531
          ]
        }
      },
      {
        "type": "Feature",
        "properties": {
          "id": "135",
          "name": "60TH STREET + GLENDALE"
        },
        "geometry": {
          "type": "Point",
          "coordinates": [
            -87.98680676852,
            43.101509365541
          ]
        }
      },
      {
        "type": "Feature",
        "properties": {
          "id": "6822",
          "name": "60TH STREET + FOND DU LAC"
        },
        "geometry": {
          "type": "Point",
          "coordinates": [
            -87.986870675264,
            43.098703035906
          ]
        }
      },
      {
        "type": "Feature",
        "properties": {
          "id": "2980",
          "name": "60TH STREET + CONGRESS"
        },
        "geometry": {
          "type": "Point",
          "coordinates": [
            -87.986907186506,
            43.097151116679
          ]
        }
      },
      {
        "type": "Feature",
        "properties": {
          "id": "6824",
          "name": "60TH STREET + MARION"
        },
        "geometry": {
          "type": "Point",
          "coordinates": [
            -87.986917395504,
            43.095671785624
          ]
        }
      },
      {
        "type": "Feature",
        "properties": {
          "id": "6825",
          "name": "60TH STREET + HOPE"
        },
        "geometry": {
          "type": "Point",
          "coordinates": [
            -87.986960364417,
            43.093836786407
          ]
        }
      },
      {
        "type": "Feature",
        "properties": {
          "id": "6936",
          "name": "60TH STREET + CAPITOL"
        },
        "geometry": {
          "type": "Point",
          "coordinates": [
            -87.987045155425,
            43.090235293075
          ]
        }
      },
      {
        "type": "Feature",
        "properties": {
          "id": "6829",
          "name": "60TH STREET + MELVINA"
        },
        "geometry": {
          "type": "Point",
          "coordinates": [
            -87.987086977513,
            43.088273455439
          ]
        }
      },
      {
        "type": "Feature",
        "properties": {
          "id": "6830",
          "name": "60TH STREET + VIENNA"
        },
        "geometry": {
          "type": "Point",
          "coordinates": [
            -87.987140675264,
            43.086432871791
          ]
        }
      },
      {
        "type": "Feature",
        "properties": {
          "id": "6831",
          "name": "60TH STREET + NASH"
        },
        "geometry": {
          "type": "Point",
          "coordinates": [
            -87.987178279761,
            43.08462953911
          ]
        }
      },
      {
        "type": "Feature",
        "properties": {
          "id": "6832",
          "name": "60TH STREET + KEEFE"
        },
        "geometry": {
          "type": "Point",
          "coordinates": [
            -87.987251248678,
            43.082861293731
          ]
        }
      },
      {
        "type": "Feature",
        "properties": {
          "id": "6833",
          "name": "60TH STREET + 3435 N."
        },
        "geometry": {
          "type": "Point",
          "coordinates": [
            -87.987267915343,
            43.08163778598
          ]
        }
      },
      {
        "type": "Feature",
        "properties": {
          "id": "6834",
          "name": "60TH STREET + TOWNSEND"
        },
        "geometry": {
          "type": "Point",
          "coordinates": [
            -87.987294737435,
            43.081010125198
          ]
        }
      },
      {
        "type": "Feature",
        "properties": {
          "id": "6835",
          "name": "60TH STREET + PHILIP"
        },
        "geometry": {
          "type": "Point",
          "coordinates": [
            -87.987347341932,
            43.078761119801
          ]
        }
      },
      {
        "type": "Feature",
        "properties": {
          "id": "6836",
          "name": "60TH STREET + BURLEIGH-ROOSEVELT"
        },
        "geometry": {
          "type": "Point",
          "coordinates": [
            -87.987351666667,
            43.074978283451
          ]
        }
      },
      {
        "type": "Feature",
        "properties": {
          "id": "6837",
          "name": "60TH STREET + CHAMBERS"
        },
        "geometry": {
          "type": "Point",
          "coordinates": [
            -87.987383333335,
            43.073626616841
          ]
        }
      },
      {
        "type": "Feature",
        "properties": {
          "id": "6838",
          "name": "60TH STREET + APPLETON"
        },
        "geometry": {
          "type": "Point",
          "coordinates": [
            -87.987511613095,
            43.071441300052
          ]
        }
      },
      {
        "type": "Feature",
        "properties": {
          "id": "6839",
          "name": "60TH STREET + HADLEY"
        },
        "geometry": {
          "type": "Point",
          "coordinates": [
            -87.987463333333,
            43.06996328366
          ]
        }
      },
      {
        "type": "Feature",
        "properties": {
          "id": "6840",
          "name": "60TH STREET + CENTER ST - LISBON"
        },
        "geometry": {
          "type": "Point",
          "coordinates": [
            -87.987472449074,
            43.067793283753
          ]
        }
      },
      {
        "type": "Feature",
        "properties": {
          "id": "6841",
          "name": "60TH STREET + CLARKE"
        },
        "geometry": {
          "type": "Point",
          "coordinates": [
            -87.987510000001,
            43.066268283815
          ]
        }
      },
      {
        "type": "Feature",
        "properties": {
          "id": "6842",
          "name": "60TH STREET + WRIGHT"
        },
        "geometry": {
          "type": "Point",
          "coordinates": [
            -87.987537395503,
            43.064459546406
          ]
        }
      },
      {
        "type": "Feature",
        "properties": {
          "id": "6843",
          "name": "60TH STREET + MEINECKE"
        },
        "geometry": {
          "type": "Point",
          "coordinates": [
            -87.987553488758,
            43.062643466349
          ]
        }
      },
      {
        "type": "Feature",
        "properties": {
          "id": "6844",
          "name": "60TH STREET + NORTH AVENUE"
        },
        "geometry": {
          "type": "Point",
          "coordinates": [
            -87.987591039683,
            43.060462203485
          ]
        }
      },
      {
        "type": "Feature",
        "properties": {
          "id": "6845",
          "name": "60TH STREET + LLOYD"
        },
        "geometry": {
          "type": "Point",
          "coordinates": [
            -87.98759051984,
            43.057261676823
          ]
        }
      },
      {
        "type": "Feature",
        "properties": {
          "id": "6846",
          "name": "60TH STREET + VINE"
        },
        "geometry": {
          "type": "Point",
          "coordinates": [
            -87.987596457671,
            43.055542574226
          ]
        }
      },
      {
        "type": "Feature",
        "properties": {
          "id": "6847",
          "name": "60TH STREET + WASHINGTON"
        },
        "geometry": {
          "type": "Point",
          "coordinates": [
            -87.98759051984,
            43.053153842454
          ]
        }
      },
      {
        "type": "Feature",
        "properties": {
          "id": "4567",
          "name": "60TH STREET + VLIET"
        },
        "geometry": {
          "type": "Point",
          "coordinates": [
            -87.98760182209,
            43.050193565227
          ]
        }
      },
      {
        "type": "Feature",
        "properties": {
          "id": "4568",
          "name": "MILWAUKEE + MARTHA WASHINGTON"
        },
        "geometry": {
          "type": "Point",
          "coordinates": [
            -87.989852031086,
            43.05048084405
          ]
        }
      },
      {
        "type": "Feature",
        "properties": {
          "id": "4569",
          "name": "MILWAUKEE + 64TH ST - UPPER PKWY"
        },
        "geometry": {
          "type": "Point",
          "coordinates": [
            -87.991728124338,
            43.050884925118
          ]
        }
      },
      {
        "type": "Feature",
        "properties": {
          "id": "4570",
          "name": "MILWAUKEE + 66TH STREET"
        },
        "geometry": {
          "type": "Point",
          "coordinates": [
            -87.994451875661,
            43.051258751331
          ]
        }
      },
      {
        "type": "Feature",
        "properties": {
          "id": "6848",
          "name": "68TH STREET + MILWAUKEE"
        },
        "geometry": {
          "type": "Point",
          "coordinates": [
            -87.996830417989,
            43.051191124485
          ]
        }
      },
      {
        "type": "Feature",
        "properties": {
          "id": "6849",
          "name": "68TH STREET + VISTA"
        },
        "geometry": {
          "type": "Point",
          "coordinates": [
            -87.996824480158,
            43.048917979184
          ]
        }
      },
      {
        "type": "Feature",
        "properties": {
          "id": "6850",
          "name": "68TH STREET + STATE"
        },
        "geometry": {
          "type": "Point",
          "coordinates": [
            -87.99744494643,
            43.046251900995
          ]
        }
      },
      {
        "type": "Feature",
        "properties": {
          "id": "6851",
          "name": "68TH STREET + TERRACE"
        },
        "geometry": {
          "type": "Point",
          "coordinates": [
            -87.997470728835,
            43.043199554096
          ]
        }
      },
      {
        "type": "Feature",
        "properties": {
          "id": "6852",
          "name": "68TH STREET + AETNA"
        },
        "geometry": {
          "type": "Point",
          "coordinates": [
            -87.99746,
            43.041543284857
          ]
        }
      },
      {
        "type": "Feature",
        "properties": {
          "id": "6853",
          "name": "68TH STREET + WISCONSIN"
        },
        "geometry": {
          "type": "Point",
          "coordinates": [
            -87.997445000001,
            43.038849951639
          ]
        }
      },
      {
        "type": "Feature",
        "properties": {
          "id": "6854",
          "name": "68TH STREET + BLUEMOUND"
        },
        "geometry": {
          "type": "Point",
          "coordinates": [
            -87.997422968914,
            43.036016030771
          ]
        }
      },
      {
        "type": "Feature",
        "properties": {
          "id": "6855",
          "name": "BLUEMOUND + 70TH STREET"
        },
        "geometry": {
          "type": "Point",
          "coordinates": [
            -87.999755364416,
            43.035865154153
          ]
        }
      },
      {
        "type": "Feature",
        "properties": {
          "id": "6856",
          "name": "BLUEMOUND + 72ND STREET"
        },
        "geometry": {
          "type": "Point",
          "coordinates": [
            -88.002207968917,
            43.035714662727
          ]
        }
      },
      {
        "type": "Feature",
        "properties": {
          "id": "6857",
          "name": "BLUEMOUND + 74TH STREET"
        },
        "geometry": {
          "type": "Point",
          "coordinates": [
            -88.004676666666,
            43.035551425683
          ]
        }
      },
      {
        "type": "Feature",
        "properties": {
          "id": "6858",
          "name": "76TH STREET + BLUEMOUND"
        },
        "geometry": {
          "type": "Point",
          "coordinates": [
            -88.007410573414,
            43.034816223795
          ]
        }
      },
      {
        "type": "Feature",
        "properties": {
          "id": "6859",
          "name": "76TH STREET + FAIRVIEW"
        },
        "geometry": {
          "type": "Point",
          "coordinates": [
            -88.007394426586,
            43.031303382487
          ]
        }
      },
      {
        "type": "Feature",
        "properties": {
          "id": "6860",
          "name": "76TH STREET + O CONNOR"
        },
        "geometry": {
          "type": "Point",
          "coordinates": [
            -88.007361666668,
            43.028779952064
          ]
        }
      },
      {
        "type": "Feature",
        "properties": {
          "id": "6861",
          "name": "76TH STREET + MAIN"
        },
        "geometry": {
          "type": "Point",
          "coordinates": [
            -88.007361666665,
            43.026293285503
          ]
        }
      },
      {
        "type": "Feature",
        "properties": {
          "id": "6862",
          "name": "76TH STREET + PIERCE"
        },
        "geometry": {
          "type": "Point",
          "coordinates": [
            -88.007351457673,
            43.023737404681
          ]
        }
      },
      {
        "type": "Feature",
        "properties": {
          "id": "6863",
          "name": "76TH STREET + MADISON"
        },
        "geometry": {
          "type": "Point",
          "coordinates": [
            -88.007409426588,
            43.018328974308
          ]
        }
      },
      {
        "type": "Feature",
        "properties": {
          "id": "6864",
          "name": "76TH STREET + GREENFIELD"
        },
        "geometry": {
          "type": "Point",
          "coordinates": [
            -88.007452968916,
            43.016897329987
          ]
        }
      },
      {
        "type": "Feature",
        "properties": {
          "id": "1709",
          "name": "76TH STREET + ORCHARD"
        },
        "geometry": {
          "type": "Point",
          "coordinates": [
            -88.0072285959,
            43.015054463964
          ]
        }
      },
      {
        "type": "Feature",
        "properties": {
          "id": "6865",
          "name": "76TH STREET + NATIONAL"
        },
        "geometry": {
          "type": "Point",
          "coordinates": [
            -88.00733541799,
            43.01184005371
          ]
        }
      },
      {
        "type": "Feature",
        "properties": {
          "id": "6866",
          "name": "76TH STREET + HICKS"
        },
        "geometry": {
          "type": "Point",
          "coordinates": [
            -88.007388542327,
            43.009288875584
          ]
        }
      },
      {
        "type": "Feature",
        "properties": {
          "id": "6867",
          "name": "76TH STREET + BECHER"
        },
        "geometry": {
          "type": "Point",
          "coordinates": [
            -88.007426146826,
            43.006423490278
          ]
        }
      },
      {
        "type": "Feature",
        "properties": {
          "id": "6868",
          "name": "76TH STREET + LINCOLN"
        },
        "geometry": {
          "type": "Point",
          "coordinates": [
            -88.007505573414,
            43.002891722469
          ]
        }
      },
      {
        "type": "Feature",
        "properties": {
          "id": "6869",
          "name": "76TH STREET + HAYES"
        },
        "geometry": {
          "type": "Point",
          "coordinates": [
            -88.007510417991,
            43.001095468191
          ]
        }
      },
      {
        "type": "Feature",
        "properties": {
          "id": "6870",
          "name": "76TH STREET + ARTHUR"
        },
        "geometry": {
          "type": "Point",
          "coordinates": [
            -88.007531355819,
            42.999264673331
          ]
        }
      },
      {
        "type": "Feature",
        "properties": {
          "id": "6871",
          "name": "76TH STREET + BELOIT"
        },
        "geometry": {
          "type": "Point",
          "coordinates": [
            -88.007644062171,
            42.997257417644
          ]
        }
      },
      {
        "type": "Feature",
        "properties": {
          "id": "6872",
          "name": "76TH STREET + CLEVELAND"
        },
        "geometry": {
          "type": "Point",
          "coordinates": [
            -88.007711666666,
            42.995696620136
          ]
        }
      },
      {
        "type": "Feature",
        "properties": {
          "id": "6873",
          "name": "76TH STREET + DAKOTA"
        },
        "geometry": {
          "type": "Point",
          "coordinates": [
            -88.007764791007,
            42.992163877406
          ]
        }
      },
      {
        "type": "Feature",
        "properties": {
          "id": "6874",
          "name": "76TH STREET + OKLAHOMA"
        },
        "geometry": {
          "type": "Point",
          "coordinates": [
            -88.007791666668,
            42.988408287113
          ]
        }
      },
      {
        "type": "Feature",
        "properties": {
          "id": "6875",
          "name": "76TH STREET + OHIO"
        },
        "geometry": {
          "type": "Point",
          "coordinates": [
            -88.007875937831,
            42.984776832826
          ]
        }
      },
      {
        "type": "Feature",
        "properties": {
          "id": "6876",
          "name": "76TH STREET + MORGAN"
        },
        "geometry": {
          "type": "Point",
          "coordinates": [
            -88.00796130225,
            42.98117290987
          ]
        }
      },
      {
        "type": "Feature",
        "properties": {
          "id": "6877",
          "name": "76TH STREET + WILBUR - WEDGEWOOD"
        },
        "geometry": {
          "type": "Point",
          "coordinates": [
            -88.008045000001,
            42.977456620914
          ]
        }
      },
      {
        "type": "Feature",
        "properties": {
          "id": "6878",
          "name": "76TH STREET + HOWARD"
        },
        "geometry": {
          "type": "Point",
          "coordinates": [
            -88.008125573411,
            42.973924579158
          ]
        }
      },
      {
        "type": "Feature",
        "properties": {
          "id": "6879",
          "name": "76TH STREET + WATERFORD"
        },
        "geometry": {
          "type": "Point",
          "coordinates": [
            -88.008215208995,
            42.970454689273
          ]
        }
      },
      {
        "type": "Feature",
        "properties": {
          "id": "6880",
          "name": "76TH STREET + 4200 S."
        },
        "geometry": {
          "type": "Point",
          "coordinates": [
            -88.00825172024,
            42.968302322548
          ]
        }
      },
      {
        "type": "Feature",
        "properties": {
          "id": "6881",
          "name": "76TH STREET + COLDSPRING"
        },
        "geometry": {
          "type": "Point",
          "coordinates": [
            -88.008316666666,
            42.96662495471
          ]
        }
      },
      {
        "type": "Feature",
        "properties": {
          "id": "1159",
          "name": "76TH STREET + FOREST HOME"
        },
        "geometry": {
          "type": "Point",
          "coordinates": [
            -88.008373542326,
            42.964215877206
          ]
        }
      },
      {
        "type": "Feature",
        "properties": {
          "id": "4873",
          "name": "76TH STREET + LAYTON"
        },
        "geometry": {
          "type": "Point",
          "coordinates": [
            -88.008475519841,
            42.959515509778
          ]
        }
      },
      {
        "type": "Feature",
        "properties": {
          "id": "temp25",
          "name": "LAYTON + 74TH STREET"
        },
        "geometry": {
          "type": "Point",
          "coordinates": [
            -88.0062714,
            42.959035535035
          ]
        }
      },
      {
        "type": "Feature",
        "properties": {
          "id": "temp13",
          "name": "LAYTON + 74TH STREET"
        },
        "geometry": {
          "type": "Point",
          "coordinates": [
            -88.006297506506,
            42.956963741513
          ]
        }
      },
      {
        "type": "Feature",
        "properties": {
          "id": "temp14",
          "name": "4887 SOUTH 74TH ST"
        },
        "geometry": {
          "type": "Point",
          "coordinates": [
            -88.006323596507,
            42.955744464079
          ]
        }
      }
    ]
  }
}