{
  "path": {
    "type": "Feature",
    "properties": {
      "id": "76",
      "name": "N. 60th-S. 70 & S. 76th",
      "color": "#b41e8e",
      "pattern_id": "5534",
      "direction": "NORTH"
    },
    "geometry": {
      "type": "LineString",
      "coordinates": [
        [
          -88.006323190001,
          42.955659675178
        ],
        [
          -88.006344647673,
          42.955514408674
        ],
        [
          -88.006366105345,
          42.954438640651
        ],
        [
          -88.00648948696,
          42.954328707093
        ],
        [
          -88.006580682066,
          42.954203068501
        ],
        [
          -88.006661148337,
          42.954085282088
        ],
        [
          -88.00669940765,
          42.953941938372
        ],
        [
          -88.006720865322,
          42.95380844652
        ],
        [
          -88.00672622974,
          42.953659249402
        ],
        [
          -88.006688678814,
          42.95352968319
        ],
        [
          -88.006597483708,
          42.953325517697
        ],
        [
          -88.006436551167,
          42.953015341901
        ],
        [
          -88.00631853397,
          42.952799395804
        ],
        [
          -88.006323898388,
          42.952504922632
        ],
        [
          -88.00637217815,
          42.952387132969
        ],
        [
          -88.006375990001,
          42.952126555333
        ],
        [
          -88.006370625583,
          42.951792815316
        ],
        [
          -88.006338439075,
          42.951635760565
        ],
        [
          -88.006225786296,
          42.951521895619
        ],
        [
          -88.006011209575,
          42.951364840176
        ],
        [
          -88.005877099124,
          42.951498337328
        ],
        [
          -88.00575371751,
          42.951608275942
        ],
        [
          -88.005603513805,
          42.951686803403
        ],
        [
          -88.0054533101,
          42.951733919832
        ],
        [
          -88.005249462215,
          42.951757478032
        ],
        [
          -88.003886900035,
          42.951769257129
        ],
        [
          -88.003618679134,
          42.951753551666
        ],
        [
          -88.003409466831,
          42.951702508883
        ],
        [
          -88.003066144077,
          42.951596496814
        ],
        [
          -88.002846202937,
          42.951502263711
        ],
        [
          -88.00264771947,
          42.951439441562
        ],
        [
          -88.002443871585,
          42.951392324908
        ],
        [
          -88.002084213469,
          42.951371573572
        ],
        [
          -87.998446666666,
          42.952471621984
        ],
        [
          -87.998415,
          42.954219955241
        ],
        [
          -87.998350000002,
          42.957176621781
        ],
        [
          -87.998335,
          42.959138288363
        ],
        [
          -87.998303333335,
          42.961093288279
        ],
        [
          -87.998223333334,
          42.963414954847
        ],
        [
          -87.998143333334,
          42.965131621441
        ],
        [
          -87.998128333335,
          42.966449954718
        ],
        [
          -87.997889999999,
          42.970384954549
        ],
        [
          -87.997858333332,
          42.973681621073
        ],
        [
          -87.99778317791,
          42.976853502866
        ],
        [
          -87.997752084658,
          42.979952105006
        ],
        [
          -87.997730573412,
          42.980966998256
        ],
        [
          -87.997645208994,
          42.984611196056
        ],
        [
          -87.997609791007,
          42.988198392578
        ],
        [
          -87.997594217591,
          42.990026790562
        ],
        [
          -87.997540519841,
          42.991897591749
        ],
        [
          -87.997508279764,
          42.993714363198
        ],
        [
          -87.997465884258,
          42.995509085166
        ],
        [
          -87.997444426586,
          42.99606623011
        ],
        [
          -87.997465884258,
          42.996176089081
        ],
        [
          -87.997465884261,
          42.997357592909
        ],
        [
          -87.997429946427,
          42.999149363314
        ],
        [
          -87.997398279763,
          43.00097259368
        ],
        [
          -87.997366093256,
          43.002622209626
        ],
        [
          -87.997366093256,
          43.002681056391
        ],
        [
          -87.997087143519,
          43.002877211867
        ],
        [
          -87.997457288363,
          43.00288113497
        ],
        [
          -87.997966908075,
          43.00288113497
        ],
        [
          -87.997953333332,
          43.004509953094
        ],
        [
          -87.997926457672,
          43.006280928143
        ],
        [
          -87.997894791005,
          43.008086416321
        ],
        [
          -87.997874426589,
          43.00980279819
        ],
        [
          -87.997857759922,
          43.012103185228
        ],
        [
          -87.997852395504,
          43.012240473067
        ],
        [
          -88.000083993404,
          43.012232628056
        ],
        [
          -88.000083333334,
          43.01301594468
        ],
        [
          -88.000088697752,
          43.013404266574
        ],
        [
          -88.000136977514,
          43.013470947864
        ],
        [
          -88.000083333333,
          43.014919952651
        ],
        [
          -87.999971666668,
          43.016573285915
        ],
        [
          -87.999924999998,
          43.017370741131
        ],
        [
          -88.000010830687,
          43.017531550203
        ],
        [
          -87.999962031083,
          43.018619562988
        ],
        [
          -87.999967395501,
          43.020258978006
        ],
        [
          -87.999908386903,
          43.020400169596
        ],
        [
          -87.999866511243,
          43.021051228774
        ],
        [
          -87.999839689153,
          43.022482721108
        ],
        [
          -87.999843906746,
          43.023525836812
        ],
        [
          -87.999865364418,
          43.024208223514
        ],
        [
          -87.999929737434,
          43.024274893072
        ],
        [
          -87.999909426586,
          43.025907500763
        ],
        [
          -87.999893333332,
          43.028197691305
        ],
        [
          -87.999796146826,
          43.028795637856
        ],
        [
          -87.999721044973,
          43.029207388493
        ],
        [
          -87.999613756613,
          43.029423066296
        ],
        [
          -87.999517197088,
          43.029517180009
        ],
        [
          -87.999372357801,
          43.029595607993
        ],
        [
          -87.99733387895,
          43.029830891343
        ],
        [
          -87.997333333333,
          43.031314951956
        ],
        [
          -87.997329582011,
          43.03200269735
        ],
        [
          -87.997345675264,
          43.033819267344
        ],
        [
          -87.997318333334,
          43.035861618432
        ],
        [
          -87.997349426586,
          43.038741714081
        ],
        [
          -87.997370937829,
          43.041404856272
        ],
        [
          -87.997381666667,
          43.043451618112
        ],
        [
          -87.997387031085,
          43.045466727838
        ],
        [
          -87.997381666668,
          43.045819951344
        ],
        [
          -87.997387031086,
          43.04601596903
        ],
        [
          -87.997344115742,
          43.046239428427
        ],
        [
          -87.996813038357,
          43.047235184969
        ],
        [
          -87.996748665341,
          43.047364553727
        ],
        [
          -87.996737936504,
          43.047497842465
        ],
        [
          -87.996743300923,
          43.048901276891
        ],
        [
          -87.996744999999,
          43.049649951181
        ],
        [
          -87.996734791007,
          43.051342604417
        ],
        [
          -87.996740155425,
          43.051440604514
        ],
        [
          -87.994281666667,
          43.051174951118
        ],
        [
          -87.993090765864,
          43.051045590396
        ],
        [
          -87.992624061496,
          43.050982869949
        ],
        [
          -87.992083542327,
          43.05087788465
        ],
        [
          -87.989926666668,
          43.050428284481
        ],
        [
          -87.987507314137,
          43.049953954727
        ],
        [
          -87.987515937829,
          43.0503450447
        ],
        [
          -87.987510573413,
          43.052761524635
        ],
        [
          -87.987510053572,
          43.055285259578
        ],
        [
          -87.987499844576,
          43.05701220385
        ],
        [
          -87.987489062168,
          43.06059720347
        ],
        [
          -87.987462240079,
          43.06246112257
        ],
        [
          -87.987463333335,
          43.064264950568
        ],
        [
          -87.98743593783,
          43.066096707683
        ],
        [
          -87.987377502645,
          43.067984950411
        ],
        [
          -87.987415053571,
          43.068443465046
        ],
        [
          -87.987389217594,
          43.070772787824
        ],
        [
          -87.987394582012,
          43.070909944443
        ],
        [
          -87.987330208996,
          43.070992238267
        ],
        [
          -87.987299115741,
          43.071639950256
        ],
        [
          -87.987309844577,
          43.072145461693
        ],
        [
          -87.987336666667,
          43.072255184555
        ],
        [
          -87.987303906747,
          43.07344377966
        ],
        [
          -87.9872464041,
          43.075172520729
        ],
        [
          -87.987155208994,
          43.075258727307
        ],
        [
          -87.987096666665,
          43.078561616634
        ],
        [
          -87.987054271166,
          43.080763107788
        ],
        [
          -87.987001666666,
          43.082543283133
        ],
        [
          -87.986970000002,
          43.084394949721
        ],
        [
          -87.986923333335,
          43.086206616314
        ],
        [
          -87.986874999999,
          43.088034949569
        ],
        [
          -87.986795000001,
          43.089831616162
        ],
        [
          -87.986735991403,
          43.090924601777
        ],
        [
          -87.986683333332,
          43.094059949318
        ],
        [
          -87.986641511244,
          43.095391032072
        ],
        [
          -87.986619999998,
          43.096784949205
        ],
        [
          -87.986636093256,
          43.097647199546
        ],
        [
          -87.986668333333,
          43.099144949105
        ],
        [
          -87.986603906746,
          43.101234949018
        ],
        [
          -87.986544898148,
          43.103784743578
        ],
        [
          -87.986467031084,
          43.104597281953
        ],
        [
          -87.986214903437,
          43.105686087506
        ],
        [
          -87.986132604499,
          43.108494866327
        ],
        [
          -87.986074635583,
          43.111928200176
        ],
        [
          -87.986047759921,
          43.115810449974
        ],
        [
          -87.986015573411,
          43.119176032601
        ],
        [
          -87.985904999999,
          43.1224716148
        ],
        [
          -87.985826093254,
          43.124736111998
        ],
        [
          -87.985768124338,
          43.126547275422
        ],
        [
          -87.985708542329,
          43.128614444677
        ],
        [
          -87.985713906747,
          43.128865008301
        ],
        [
          -87.985735364419,
          43.129056845382
        ],
        [
          -87.985794373017,
          43.129366132471
        ],
        [
          -87.986030407411,
          43.130125640963
        ],
        [
          -87.986042968914,
          43.130430025984
        ],
        [
          -87.986020937832,
          43.132237273729
        ],
        [
          -87.986015573412,
          43.133807699596
        ],
        [
          -87.985999480158,
          43.134520176711
        ],
        [
          -87.985978022486,
          43.135040827816
        ],
        [
          -87.985826666667,
          43.135758280914
        ],
        [
          -87.98565500529,
          43.136564684714
        ],
        [
          -87.985633547618,
          43.136736924924
        ],
        [
          -87.985617454364,
          43.136944395442
        ],
        [
          -87.985582395502,
          43.138751537546
        ],
        [
          -87.985508333334,
          43.141169947358
        ],
        [
          -87.985433751322,
          43.143459442158
        ],
        [
          -87.985374689154,
          43.14623328048
        ],
        [
          -87.985326875662,
          43.148375527525
        ],
        [
          -87.98530541799,
          43.149870580677
        ],
        [
          -87.985342968916,
          43.150101488767
        ],
        [
          -87.985280675263,
          43.151608860518
        ],
        [
          -87.985043435187,
          43.156719366782
        ],
        [
          -87.98496827976,
          43.15867487388
        ],
        [
          -87.984888279761,
          43.160736613215
        ],
        [
          -87.98480504828,
          43.16294596166
        ],
        [
          -87.984645675265,
          43.170281104282
        ],
        [
          -87.984543697753,
          43.174664506559
        ],
        [
          -87.984489506609,
          43.177816983875
        ],
        [
          -87.98538536442,
          43.177828719615
        ],
        [
          -87.989302395504,
          43.177875248177
        ],
        [
          -87.991691666668,
          43.177894807726
        ],
        [
          -87.996394999999,
          43.177946543456
        ],
        [
          -87.999627031086,
          43.177966474417
        ],
        [
          -88.004775937832,
          43.178006983963
        ],
        [
          -88.008492352512,
          43.177977079297
        ],
        [
          -88.008760573414,
          43.178082700604
        ],
        [
          -88.008873226193,
          43.1781570266
        ],
        [
          -88.008883955029,
          43.178356532772
        ],
        [
          -88.008889319447,
          43.178524743352
        ],
        [
          -88.008959056881,
          43.178665570458
        ],
        [
          -88.00907170966,
          43.178798573538
        ],
        [
          -88.009232642201,
          43.178939400012
        ],
        [
          -88.009350659397,
          43.179060666993
        ],
        [
          -88.009398939159,
          43.17918584556
        ],
        [
          -88.009420396832,
          43.179307112052
        ],
        [
          -88.010821355819,
          43.178996268247
        ],
        [
          -88.011400712966,
          43.178871089291
        ],
        [
          -88.011652840613,
          43.178855441904
        ],
        [
          -88.012092722892,
          43.178851530056
        ],
        [
          -88.012334121703,
          43.178875001137
        ],
        [
          -88.012570156096,
          43.178921943273
        ],
        [
          -88.012774003982,
          43.179011915598
        ],
        [
          -88.012961758613,
          43.179109711454
        ],
        [
          -88.013449920653,
          43.179453951619
        ],
        [
          -88.013707412719,
          43.179285743599
        ],
        [
          -88.013852252006,
          43.179207507153
        ],
        [
          -88.01400245571,
          43.179164477064
        ],
        [
          -88.014179481505,
          43.179148829752
        ],
        [
          -88.015069533731,
          43.17917265988
        ],
        [
          -88.015766908074,
          43.179180483534
        ],
        [
          -88.015793730165,
          43.178405936963
        ],
        [
          -88.016019689154,
          43.17805871968
        ],
        [
          -88.016105519842,
          43.177937450709
        ],
        [
          -88.020480937831,
          43.177900248194
        ],
        [
          -88.024125782407,
          43.177860757685
        ],
        [
          -88.028337968915,
          43.177824160053
        ],
        [
          -88.030124320119,
          43.177816336226
        ],
        [
          -88.030135048955,
          43.177957164965
        ],
        [
          -88.030155,
          43.178118279167
        ]
      ]
    }
  },
  "stops": {
    "type": "FeatureCollection",
    "features": [
      {
        "type": "Feature",
        "properties": {
          "id": "temp20",
          "name": "4817 SOUTH 74TH ST"
        },
        "geometry": {
          "type": "Point",
          "coordinates": [
            -88.006323190001,
            42.955659675178
          ]
        }
      },
      {
        "type": "Feature",
        "properties": {
          "id": "temp21",
          "name": "HOMELS + 74TH STREET"
        },
        "geometry": {
          "type": "Point",
          "coordinates": [
            -88.00669940765,
            42.953941938372
          ]
        }
      },
      {
        "type": "Feature",
        "properties": {
          "id": "temp22",
          "name": "EDGERTON + 74TH STREET"
        },
        "geometry": {
          "type": "Point",
          "coordinates": [
            -88.006375990001,
            42.952126555333
          ]
        }
      },
      {
        "type": "Feature",
        "properties": {
          "id": "temp23",
          "name": "SOUTHRIDGE + PARK & RIDE LOT"
        },
        "geometry": {
          "type": "Point",
          "coordinates": [
            -88.002084213469,
            42.951371573572
          ]
        }
      },
      {
        "type": "Feature",
        "properties": {
          "id": "temp94",
          "name": "68TH STREET + EDGERTON"
        },
        "geometry": {
          "type": "Point",
          "coordinates": [
            -87.998446666666,
            42.952471621984
          ]
        }
      },
      {
        "type": "Feature",
        "properties": {
          "id": "7012",
          "name": "68TH STREET + HOLMES"
        },
        "geometry": {
          "type": "Point",
          "coordinates": [
            -87.998415,
            42.954219955241
          ]
        }
      },
      {
        "type": "Feature",
        "properties": {
          "id": "7013",
          "name": "68TH STREET + BARNARD"
        },
        "geometry": {
          "type": "Point",
          "coordinates": [
            -87.998350000002,
            42.957176621781
          ]
        }
      },
      {
        "type": "Feature",
        "properties": {
          "id": "7014",
          "name": "68TH STREET + LAYTON"
        },
        "geometry": {
          "type": "Point",
          "coordinates": [
            -87.998335,
            42.959138288363
          ]
        }
      },
      {
        "type": "Feature",
        "properties": {
          "id": "7015",
          "name": "68TH STREET + ARMOUR"
        },
        "geometry": {
          "type": "Point",
          "coordinates": [
            -87.998303333335,
            42.961093288279
          ]
        }
      },
      {
        "type": "Feature",
        "properties": {
          "id": "7016",
          "name": "68TH STREET + ALLERTON"
        },
        "geometry": {
          "type": "Point",
          "coordinates": [
            -87.998223333334,
            42.963414954847
          ]
        }
      },
      {
        "type": "Feature",
        "properties": {
          "id": "7017",
          "name": "68TH STREET + BOTTSFORD"
        },
        "geometry": {
          "type": "Point",
          "coordinates": [
            -87.998143333334,
            42.965131621441
          ]
        }
      },
      {
        "type": "Feature",
        "properties": {
          "id": "7018",
          "name": "68TH STREET + COLDSPRING"
        },
        "geometry": {
          "type": "Point",
          "coordinates": [
            -87.998128333335,
            42.966449954718
          ]
        }
      },
      {
        "type": "Feature",
        "properties": {
          "id": "7019",
          "name": "68TH STREET + FOREST HOME"
        },
        "geometry": {
          "type": "Point",
          "coordinates": [
            -87.997889999999,
            42.970384954549
          ]
        }
      },
      {
        "type": "Feature",
        "properties": {
          "id": "7020",
          "name": "68TH STREET + HOWARD"
        },
        "geometry": {
          "type": "Point",
          "coordinates": [
            -87.997858333332,
            42.973681621073
          ]
        }
      },
      {
        "type": "Feature",
        "properties": {
          "id": "7021",
          "name": "68TH STREET + NEW JERSEY"
        },
        "geometry": {
          "type": "Point",
          "coordinates": [
            -87.99778317791,
            42.976853502866
          ]
        }
      },
      {
        "type": "Feature",
        "properties": {
          "id": "6993",
          "name": "68TH STREET + EDEN"
        },
        "geometry": {
          "type": "Point",
          "coordinates": [
            -87.997752084658,
            42.979952105006
          ]
        }
      },
      {
        "type": "Feature",
        "properties": {
          "id": "7023",
          "name": "68TH STREET + MORGAN"
        },
        "geometry": {
          "type": "Point",
          "coordinates": [
            -87.997730573412,
            42.980966998256
          ]
        }
      },
      {
        "type": "Feature",
        "properties": {
          "id": "7024",
          "name": "68TH STREET + OHIO"
        },
        "geometry": {
          "type": "Point",
          "coordinates": [
            -87.997645208994,
            42.984611196056
          ]
        }
      },
      {
        "type": "Feature",
        "properties": {
          "id": "7025",
          "name": "68TH STREET + OKLAHOMA"
        },
        "geometry": {
          "type": "Point",
          "coordinates": [
            -87.997609791007,
            42.988198392578
          ]
        }
      },
      {
        "type": "Feature",
        "properties": {
          "id": "7026",
          "name": "68TH STREET + KINNICKINNIC RIVER PKWY"
        },
        "geometry": {
          "type": "Point",
          "coordinates": [
            -87.997594217591,
            42.990026790562
          ]
        }
      },
      {
        "type": "Feature",
        "properties": {
          "id": "7027",
          "name": "68TH STREET + DAKOTA"
        },
        "geometry": {
          "type": "Point",
          "coordinates": [
            -87.997540519841,
            42.991897591749
          ]
        }
      },
      {
        "type": "Feature",
        "properties": {
          "id": "7028",
          "name": "68TH STREET + MONTANA"
        },
        "geometry": {
          "type": "Point",
          "coordinates": [
            -87.997508279764,
            42.993714363198
          ]
        }
      },
      {
        "type": "Feature",
        "properties": {
          "id": "7029",
          "name": "68TH STREET + CLEVELAND"
        },
        "geometry": {
          "type": "Point",
          "coordinates": [
            -87.997465884258,
            42.995509085166
          ]
        }
      },
      {
        "type": "Feature",
        "properties": {
          "id": "7030",
          "name": "68TH STREET + HARRISON"
        },
        "geometry": {
          "type": "Point",
          "coordinates": [
            -87.997465884261,
            42.997357592909
          ]
        }
      },
      {
        "type": "Feature",
        "properties": {
          "id": "7031",
          "name": "68TH STREET + ARTHUR"
        },
        "geometry": {
          "type": "Point",
          "coordinates": [
            -87.997429946427,
            42.999149363314
          ]
        }
      },
      {
        "type": "Feature",
        "properties": {
          "id": "7032",
          "name": "68TH STREET + HAYES"
        },
        "geometry": {
          "type": "Point",
          "coordinates": [
            -87.997398279763,
            43.00097259368
          ]
        }
      },
      {
        "type": "Feature",
        "properties": {
          "id": "7033",
          "name": "68TH STREET + LINCOLN - BELOIT"
        },
        "geometry": {
          "type": "Point",
          "coordinates": [
            -87.997366093256,
            43.002622209626
          ]
        }
      },
      {
        "type": "Feature",
        "properties": {
          "id": "7034",
          "name": "68TH STREET + GRANT"
        },
        "geometry": {
          "type": "Point",
          "coordinates": [
            -87.997953333332,
            43.004509953094
          ]
        }
      },
      {
        "type": "Feature",
        "properties": {
          "id": "7035",
          "name": "68TH STREET + BECHER"
        },
        "geometry": {
          "type": "Point",
          "coordinates": [
            -87.997926457672,
            43.006280928143
          ]
        }
      },
      {
        "type": "Feature",
        "properties": {
          "id": "7036",
          "name": "68TH STREET + ROGERS"
        },
        "geometry": {
          "type": "Point",
          "coordinates": [
            -87.997894791005,
            43.008086416321
          ]
        }
      },
      {
        "type": "Feature",
        "properties": {
          "id": "7037",
          "name": "68TH STREET + BURNHAM"
        },
        "geometry": {
          "type": "Point",
          "coordinates": [
            -87.997874426589,
            43.00980279819
          ]
        }
      },
      {
        "type": "Feature",
        "properties": {
          "id": "7038",
          "name": "68TH STREET + MITCHELL"
        },
        "geometry": {
          "type": "Point",
          "coordinates": [
            -87.997857759922,
            43.012103185228
          ]
        }
      },
      {
        "type": "Feature",
        "properties": {
          "id": "7039",
          "name": "70TH STREET + NATIONAL"
        },
        "geometry": {
          "type": "Point",
          "coordinates": [
            -88.000083333334,
            43.01301594468
          ]
        }
      },
      {
        "type": "Feature",
        "properties": {
          "id": "7040",
          "name": "70TH STREET + ORCHARD"
        },
        "geometry": {
          "type": "Point",
          "coordinates": [
            -88.000083333333,
            43.014919952651
          ]
        }
      },
      {
        "type": "Feature",
        "properties": {
          "id": "7041",
          "name": "70TH STREET + GREENFIELD"
        },
        "geometry": {
          "type": "Point",
          "coordinates": [
            -87.999971666668,
            43.016573285915
          ]
        }
      },
      {
        "type": "Feature",
        "properties": {
          "id": "447",
          "name": "70TH STREET + GREENFIELD"
        },
        "geometry": {
          "type": "Point",
          "coordinates": [
            -87.999924999998,
            43.017370741131
          ]
        }
      },
      {
        "type": "Feature",
        "properties": {
          "id": "448",
          "name": "70TH STREET + MADISON"
        },
        "geometry": {
          "type": "Point",
          "coordinates": [
            -87.999962031083,
            43.018619562988
          ]
        }
      },
      {
        "type": "Feature",
        "properties": {
          "id": "449",
          "name": "70TH STREET + WASHINGTON"
        },
        "geometry": {
          "type": "Point",
          "coordinates": [
            -87.999866511243,
            43.021051228774
          ]
        }
      },
      {
        "type": "Feature",
        "properties": {
          "id": "450",
          "name": "70TH STREET + WALKER"
        },
        "geometry": {
          "type": "Point",
          "coordinates": [
            -87.999843906746,
            43.023525836812
          ]
        }
      },
      {
        "type": "Feature",
        "properties": {
          "id": "452",
          "name": "70TH STREET + MAIN"
        },
        "geometry": {
          "type": "Point",
          "coordinates": [
            -87.999909426586,
            43.025907500763
          ]
        }
      },
      {
        "type": "Feature",
        "properties": {
          "id": "455",
          "name": "70TH STREET + ADLER"
        },
        "geometry": {
          "type": "Point",
          "coordinates": [
            -87.999796146826,
            43.028795637856
          ]
        }
      },
      {
        "type": "Feature",
        "properties": {
          "id": "2609",
          "name": "68TH STREET + FAIRVIEW"
        },
        "geometry": {
          "type": "Point",
          "coordinates": [
            -87.997333333333,
            43.031314951956
          ]
        }
      },
      {
        "type": "Feature",
        "properties": {
          "id": "7042",
          "name": "68TH STREET + STEVENSON"
        },
        "geometry": {
          "type": "Point",
          "coordinates": [
            -87.997329582011,
            43.03200269735
          ]
        }
      },
      {
        "type": "Feature",
        "properties": {
          "id": "7043",
          "name": "68TH STREET + MOUNT VERNON"
        },
        "geometry": {
          "type": "Point",
          "coordinates": [
            -87.997345675264,
            43.033819267344
          ]
        }
      },
      {
        "type": "Feature",
        "properties": {
          "id": "6913",
          "name": "68TH STREET + BLUEMOUND"
        },
        "geometry": {
          "type": "Point",
          "coordinates": [
            -87.997318333334,
            43.035861618432
          ]
        }
      },
      {
        "type": "Feature",
        "properties": {
          "id": "7044",
          "name": "68TH STREET + WISCONSIN"
        },
        "geometry": {
          "type": "Point",
          "coordinates": [
            -87.997349426586,
            43.038741714081
          ]
        }
      },
      {
        "type": "Feature",
        "properties": {
          "id": "6914",
          "name": "68TH STREET + AETNA"
        },
        "geometry": {
          "type": "Point",
          "coordinates": [
            -87.997370937829,
            43.041404856272
          ]
        }
      },
      {
        "type": "Feature",
        "properties": {
          "id": "6915",
          "name": "68TH STREET + HILLSIDE"
        },
        "geometry": {
          "type": "Point",
          "coordinates": [
            -87.997381666667,
            43.043451618112
          ]
        }
      },
      {
        "type": "Feature",
        "properties": {
          "id": "6916",
          "name": "68TH STREET + STATE"
        },
        "geometry": {
          "type": "Point",
          "coordinates": [
            -87.997381666668,
            43.045819951344
          ]
        }
      },
      {
        "type": "Feature",
        "properties": {
          "id": "6917",
          "name": "68TH STREET + BLANCHARD"
        },
        "geometry": {
          "type": "Point",
          "coordinates": [
            -87.996744999999,
            43.049649951181
          ]
        }
      },
      {
        "type": "Feature",
        "properties": {
          "id": "6918",
          "name": "68TH STREET + MILWAUKEE"
        },
        "geometry": {
          "type": "Point",
          "coordinates": [
            -87.996734791007,
            43.051342604417
          ]
        }
      },
      {
        "type": "Feature",
        "properties": {
          "id": "4439",
          "name": "MILWAUKEE + 66TH STREET"
        },
        "geometry": {
          "type": "Point",
          "coordinates": [
            -87.994281666667,
            43.051174951118
          ]
        }
      },
      {
        "type": "Feature",
        "properties": {
          "id": "4440",
          "name": "MILWAUKEE + 64TH ST - UPPER PKWY"
        },
        "geometry": {
          "type": "Point",
          "coordinates": [
            -87.992083542327,
            43.05087788465
          ]
        }
      },
      {
        "type": "Feature",
        "properties": {
          "id": "4441",
          "name": "MILWAUKEE + MARTHA WASHINGTON"
        },
        "geometry": {
          "type": "Point",
          "coordinates": [
            -87.989926666668,
            43.050428284481
          ]
        }
      },
      {
        "type": "Feature",
        "properties": {
          "id": "4442",
          "name": "60TH STREET + VLIET"
        },
        "geometry": {
          "type": "Point",
          "coordinates": [
            -87.987515937829,
            43.0503450447
          ]
        }
      },
      {
        "type": "Feature",
        "properties": {
          "id": "4443",
          "name": "60TH STREET + WASHINGTON"
        },
        "geometry": {
          "type": "Point",
          "coordinates": [
            -87.987510573413,
            43.052761524635
          ]
        }
      },
      {
        "type": "Feature",
        "properties": {
          "id": "6919",
          "name": "60TH STREET + VINE"
        },
        "geometry": {
          "type": "Point",
          "coordinates": [
            -87.987510053572,
            43.055285259578
          ]
        }
      },
      {
        "type": "Feature",
        "properties": {
          "id": "6920",
          "name": "60TH STREET + LLOYD"
        },
        "geometry": {
          "type": "Point",
          "coordinates": [
            -87.987499844576,
            43.05701220385
          ]
        }
      },
      {
        "type": "Feature",
        "properties": {
          "id": "6921",
          "name": "60TH STREET + NORTH AVENUE"
        },
        "geometry": {
          "type": "Point",
          "coordinates": [
            -87.987489062168,
            43.06059720347
          ]
        }
      },
      {
        "type": "Feature",
        "properties": {
          "id": "6922",
          "name": "60TH STREET + MEINECKE"
        },
        "geometry": {
          "type": "Point",
          "coordinates": [
            -87.987462240079,
            43.06246112257
          ]
        }
      },
      {
        "type": "Feature",
        "properties": {
          "id": "6923",
          "name": "60TH STREET + WRIGHT"
        },
        "geometry": {
          "type": "Point",
          "coordinates": [
            -87.987463333335,
            43.064264950568
          ]
        }
      },
      {
        "type": "Feature",
        "properties": {
          "id": "6924",
          "name": "60TH STREET + CLARKE"
        },
        "geometry": {
          "type": "Point",
          "coordinates": [
            -87.98743593783,
            43.066096707683
          ]
        }
      },
      {
        "type": "Feature",
        "properties": {
          "id": "6925",
          "name": "60TH STREET + CENTER ST - LISBON"
        },
        "geometry": {
          "type": "Point",
          "coordinates": [
            -87.987377502645,
            43.067984950411
          ]
        }
      },
      {
        "type": "Feature",
        "properties": {
          "id": "6926",
          "name": "60TH STREET + APPLETON"
        },
        "geometry": {
          "type": "Point",
          "coordinates": [
            -87.987389217594,
            43.070772787824
          ]
        }
      },
      {
        "type": "Feature",
        "properties": {
          "id": "6927",
          "name": "60TH STREET + LOCUST"
        },
        "geometry": {
          "type": "Point",
          "coordinates": [
            -87.987299115741,
            43.071639950256
          ]
        }
      },
      {
        "type": "Feature",
        "properties": {
          "id": "6928",
          "name": "60TH STREET + CHAMBERS"
        },
        "geometry": {
          "type": "Point",
          "coordinates": [
            -87.987303906747,
            43.07344377966
          ]
        }
      },
      {
        "type": "Feature",
        "properties": {
          "id": "6929",
          "name": "60TH STREET + BURLEIGH-ROOSEVELT"
        },
        "geometry": {
          "type": "Point",
          "coordinates": [
            -87.987155208994,
            43.075258727307
          ]
        }
      },
      {
        "type": "Feature",
        "properties": {
          "id": "6930",
          "name": "60TH STREET + PHILIP"
        },
        "geometry": {
          "type": "Point",
          "coordinates": [
            -87.987096666665,
            43.078561616634
          ]
        }
      },
      {
        "type": "Feature",
        "properties": {
          "id": "6931",
          "name": "60TH STREET + TOWNSEND"
        },
        "geometry": {
          "type": "Point",
          "coordinates": [
            -87.987054271166,
            43.080763107788
          ]
        }
      },
      {
        "type": "Feature",
        "properties": {
          "id": "6932",
          "name": "60TH STREET + KEEFE"
        },
        "geometry": {
          "type": "Point",
          "coordinates": [
            -87.987001666666,
            43.082543283133
          ]
        }
      },
      {
        "type": "Feature",
        "properties": {
          "id": "6933",
          "name": "60TH STREET + NASH"
        },
        "geometry": {
          "type": "Point",
          "coordinates": [
            -87.986970000002,
            43.084394949721
          ]
        }
      },
      {
        "type": "Feature",
        "properties": {
          "id": "6934",
          "name": "60TH STREET + VIENNA"
        },
        "geometry": {
          "type": "Point",
          "coordinates": [
            -87.986923333335,
            43.086206616314
          ]
        }
      },
      {
        "type": "Feature",
        "properties": {
          "id": "6935",
          "name": "60TH STREET + MELVINA"
        },
        "geometry": {
          "type": "Point",
          "coordinates": [
            -87.986874999999,
            43.088034949569
          ]
        }
      },
      {
        "type": "Feature",
        "properties": {
          "id": "7896",
          "name": "60TH STREET + CAPITOL"
        },
        "geometry": {
          "type": "Point",
          "coordinates": [
            -87.986795000001,
            43.089831616162
          ]
        }
      },
      {
        "type": "Feature",
        "properties": {
          "id": "6939",
          "name": "60TH STREET + HOPE"
        },
        "geometry": {
          "type": "Point",
          "coordinates": [
            -87.986683333332,
            43.094059949318
          ]
        }
      },
      {
        "type": "Feature",
        "properties": {
          "id": "6940",
          "name": "60TH STREET + MARION"
        },
        "geometry": {
          "type": "Point",
          "coordinates": [
            -87.986641511244,
            43.095391032072
          ]
        }
      },
      {
        "type": "Feature",
        "properties": {
          "id": "6941",
          "name": "60TH STREET + CONGRESS"
        },
        "geometry": {
          "type": "Point",
          "coordinates": [
            -87.986619999998,
            43.096784949205
          ]
        }
      },
      {
        "type": "Feature",
        "properties": {
          "id": "6942",
          "name": "60TH STREET + FOND DU LAC"
        },
        "geometry": {
          "type": "Point",
          "coordinates": [
            -87.986636093256,
            43.097647199546
          ]
        }
      },
      {
        "type": "Feature",
        "properties": {
          "id": "6943",
          "name": "60TH STREET + RUBY"
        },
        "geometry": {
          "type": "Point",
          "coordinates": [
            -87.986668333333,
            43.099144949105
          ]
        }
      },
      {
        "type": "Feature",
        "properties": {
          "id": "70",
          "name": "60TH STREET + GLENDALE"
        },
        "geometry": {
          "type": "Point",
          "coordinates": [
            -87.986603906746,
            43.101234949018
          ]
        }
      },
      {
        "type": "Feature",
        "properties": {
          "id": "71",
          "name": "60TH STREET + HAMPTON"
        },
        "geometry": {
          "type": "Point",
          "coordinates": [
            -87.986467031084,
            43.104597281953
          ]
        }
      },
      {
        "type": "Feature",
        "properties": {
          "id": "72",
          "name": "60TH STREET + FAIRMOUNT"
        },
        "geometry": {
          "type": "Point",
          "coordinates": [
            -87.986132604499,
            43.108494866327
          ]
        }
      },
      {
        "type": "Feature",
        "properties": {
          "id": "1037",
          "name": "60TH STREET + VILLARD"
        },
        "geometry": {
          "type": "Point",
          "coordinates": [
            -87.986074635583,
            43.111928200176
          ]
        }
      },
      {
        "type": "Feature",
        "properties": {
          "id": "1046",
          "name": "60TH STREET + CUSTER"
        },
        "geometry": {
          "type": "Point",
          "coordinates": [
            -87.986047759921,
            43.115810449974
          ]
        }
      },
      {
        "type": "Feature",
        "properties": {
          "id": "1063",
          "name": "60TH STREET + SILVER SPRING"
        },
        "geometry": {
          "type": "Point",
          "coordinates": [
            -87.986015573411,
            43.119176032601
          ]
        }
      },
      {
        "type": "Feature",
        "properties": {
          "id": "1134",
          "name": "60TH STREET + CARMEN"
        },
        "geometry": {
          "type": "Point",
          "coordinates": [
            -87.985904999999,
            43.1224716148
          ]
        }
      },
      {
        "type": "Feature",
        "properties": {
          "id": "1149",
          "name": "60TH STREET + BOBOLINK"
        },
        "geometry": {
          "type": "Point",
          "coordinates": [
            -87.985826093254,
            43.124736111998
          ]
        }
      },
      {
        "type": "Feature",
        "properties": {
          "id": "1150",
          "name": "60TH STREET + FLORIST"
        },
        "geometry": {
          "type": "Point",
          "coordinates": [
            -87.985768124338,
            43.126547275422
          ]
        }
      },
      {
        "type": "Feature",
        "properties": {
          "id": "3014",
          "name": "60TH STREET + DOUGLAS"
        },
        "geometry": {
          "type": "Point",
          "coordinates": [
            -87.985708542329,
            43.128614444677
          ]
        }
      },
      {
        "type": "Feature",
        "properties": {
          "id": "6946",
          "name": "60TH STREET + BENDER"
        },
        "geometry": {
          "type": "Point",
          "coordinates": [
            -87.986042968914,
            43.130430025984
          ]
        }
      },
      {
        "type": "Feature",
        "properties": {
          "id": "1464",
          "name": "60TH STREET + 6312 N."
        },
        "geometry": {
          "type": "Point",
          "coordinates": [
            -87.986020937832,
            43.132237273729
          ]
        }
      },
      {
        "type": "Feature",
        "properties": {
          "id": "6947",
          "name": "60TH STREET + MILL"
        },
        "geometry": {
          "type": "Point",
          "coordinates": [
            -87.986015573412,
            43.133807699596
          ]
        }
      },
      {
        "type": "Feature",
        "properties": {
          "id": "5764",
          "name": "60TH STREET + BRENTWOOD"
        },
        "geometry": {
          "type": "Point",
          "coordinates": [
            -87.985826666667,
            43.135758280914
          ]
        }
      },
      {
        "type": "Feature",
        "properties": {
          "id": "5765",
          "name": "60TH STREET + 6644 N."
        },
        "geometry": {
          "type": "Point",
          "coordinates": [
            -87.985582395502,
            43.138751537546
          ]
        }
      },
      {
        "type": "Feature",
        "properties": {
          "id": "5766",
          "name": "60TH STREET + GREEN TREE"
        },
        "geometry": {
          "type": "Point",
          "coordinates": [
            -87.985508333334,
            43.141169947358
          ]
        }
      },
      {
        "type": "Feature",
        "properties": {
          "id": "6949",
          "name": "60TH STREET + SPOKANE"
        },
        "geometry": {
          "type": "Point",
          "coordinates": [
            -87.985433751322,
            43.143459442158
          ]
        }
      },
      {
        "type": "Feature",
        "properties": {
          "id": "6950",
          "name": "60TH STREET + HELENA"
        },
        "geometry": {
          "type": "Point",
          "coordinates": [
            -87.985374689154,
            43.14623328048
          ]
        }
      },
      {
        "type": "Feature",
        "properties": {
          "id": "6951",
          "name": "60TH STREET + GOOD HOPE"
        },
        "geometry": {
          "type": "Point",
          "coordinates": [
            -87.985326875662,
            43.148375527525
          ]
        }
      },
      {
        "type": "Feature",
        "properties": {
          "id": "6952",
          "name": "60TH STREET + HEMLOCK"
        },
        "geometry": {
          "type": "Point",
          "coordinates": [
            -87.985280675263,
            43.151608860518
          ]
        }
      },
      {
        "type": "Feature",
        "properties": {
          "id": "6953",
          "name": "60TH STREET + CALUMET"
        },
        "geometry": {
          "type": "Point",
          "coordinates": [
            -87.985043435187,
            43.156719366782
          ]
        }
      },
      {
        "type": "Feature",
        "properties": {
          "id": "6954",
          "name": "60TH STREET + PORT"
        },
        "geometry": {
          "type": "Point",
          "coordinates": [
            -87.98496827976,
            43.15867487388
          ]
        }
      },
      {
        "type": "Feature",
        "properties": {
          "id": "6955",
          "name": "60TH STREET + 7800 N."
        },
        "geometry": {
          "type": "Point",
          "coordinates": [
            -87.984888279761,
            43.160736613215
          ]
        }
      },
      {
        "type": "Feature",
        "properties": {
          "id": "6956",
          "name": "60TH STREET + BRADLEY"
        },
        "geometry": {
          "type": "Point",
          "coordinates": [
            -87.98480504828,
            43.16294596166
          ]
        }
      },
      {
        "type": "Feature",
        "properties": {
          "id": "6958",
          "name": "60TH STREET + DEAN"
        },
        "geometry": {
          "type": "Point",
          "coordinates": [
            -87.984645675265,
            43.170281104282
          ]
        }
      },
      {
        "type": "Feature",
        "properties": {
          "id": "6959",
          "name": "60TH STREET + WABASH"
        },
        "geometry": {
          "type": "Point",
          "coordinates": [
            -87.984543697753,
            43.174664506559
          ]
        }
      },
      {
        "type": "Feature",
        "properties": {
          "id": "6960",
          "name": "BROWN DEER + 60TH STREET"
        },
        "geometry": {
          "type": "Point",
          "coordinates": [
            -87.98538536442,
            43.177828719615
          ]
        }
      },
      {
        "type": "Feature",
        "properties": {
          "id": "6961",
          "name": "BROWN DEER + 64TH STREET"
        },
        "geometry": {
          "type": "Point",
          "coordinates": [
            -87.989302395504,
            43.177875248177
          ]
        }
      },
      {
        "type": "Feature",
        "properties": {
          "id": "4932",
          "name": "BROWN DEER + 66TH STREET"
        },
        "geometry": {
          "type": "Point",
          "coordinates": [
            -87.991691666668,
            43.177894807726
          ]
        }
      },
      {
        "type": "Feature",
        "properties": {
          "id": "6963",
          "name": "BROWN DEER + 6950 W."
        },
        "geometry": {
          "type": "Point",
          "coordinates": [
            -87.996394999999,
            43.177946543456
          ]
        }
      },
      {
        "type": "Feature",
        "properties": {
          "id": "1565",
          "name": "BROWN DEER + 72ND STREET"
        },
        "geometry": {
          "type": "Point",
          "coordinates": [
            -87.999627031086,
            43.177966474417
          ]
        }
      },
      {
        "type": "Feature",
        "properties": {
          "id": "6964",
          "name": "BROWN DEER + 76TH STREET"
        },
        "geometry": {
          "type": "Point",
          "coordinates": [
            -88.004775937832,
            43.178006983963
          ]
        }
      },
      {
        "type": "Feature",
        "properties": {
          "id": "2384",
          "name": "BROWN DEER + SERVITE"
        },
        "geometry": {
          "type": "Point",
          "coordinates": [
            -88.008760573414,
            43.178082700604
          ]
        }
      },
      {
        "type": "Feature",
        "properties": {
          "id": "299",
          "name": "NORTHRIDGE MALL + 8200 W."
        },
        "geometry": {
          "type": "Point",
          "coordinates": [
            -88.010821355819,
            43.178996268247
          ]
        }
      },
      {
        "type": "Feature",
        "properties": {
          "id": "2793",
          "name": "BEATRICE + 85TH STREET"
        },
        "geometry": {
          "type": "Point",
          "coordinates": [
            -88.015069533731,
            43.17917265988
          ]
        }
      },
      {
        "type": "Feature",
        "properties": {
          "id": "8387",
          "name": "85TH STREET + BROWN DEER"
        },
        "geometry": {
          "type": "Point",
          "coordinates": [
            -88.016019689154,
            43.17805871968
          ]
        }
      },
      {
        "type": "Feature",
        "properties": {
          "id": "6798",
          "name": "BROWN DEER + 8766 W."
        },
        "geometry": {
          "type": "Point",
          "coordinates": [
            -88.020480937831,
            43.177900248194
          ]
        }
      },
      {
        "type": "Feature",
        "properties": {
          "id": "6970",
          "name": "BROWN DEER + 91ST ST - SWAN"
        },
        "geometry": {
          "type": "Point",
          "coordinates": [
            -88.024125782407,
            43.177860757685
          ]
        }
      },
      {
        "type": "Feature",
        "properties": {
          "id": "6971",
          "name": "BROWN DEER + 95TH STREET"
        },
        "geometry": {
          "type": "Point",
          "coordinates": [
            -88.028337968915,
            43.177824160053
          ]
        }
      },
      {
        "type": "Feature",
        "properties": {
          "id": "6972",
          "name": "96TH STREET + BROWN DEER"
        },
        "geometry": {
          "type": "Point",
          "coordinates": [
            -88.030155,
            43.178118279167
          ]
        }
      }
    ]
  }
}