{
  "type": "FeatureCollection",
  "properties": {
    "id": "52",
    "name": "Clement-15th Avenue",
    "color": "#8dc63f",
    "direction": "SOUTH"
  },
  "features": [
    {
      "type": "Feature",
      "properties": {
        "id": "1514",
        "name": "10TH AVENUE + MARQUETTE"
      },
      "geometry": {
        "type": "Point",
        "coordinates": [
          -87.860895519841,
          42.908001269687
        ]
      }
    },
    {
      "type": "Feature",
      "properties": {
        "id": "1477",
        "name": "10TH AVENUE + MINNESOTA"
      },
      "geometry": {
        "type": "Point",
        "coordinates": [
          -87.860662031085,
          42.912520672515
        ]
      }
    },
    {
      "type": "Feature",
      "properties": {
        "id": "1478",
        "name": "10TH AVENUE + MONROE"
      },
      "geometry": {
        "type": "Point",
        "coordinates": [
          -87.860724271164,
          42.911411743904
        ]
      }
    },
    {
      "type": "Feature",
      "properties": {
        "id": "1476",
        "name": "10TH AVENUE + RAWSON"
      },
      "geometry": {
        "type": "Point",
        "coordinates": [
          -87.860460728836,
          42.91469662585
        ]
      }
    },
    {
      "type": "Feature",
      "properties": {
        "id": "1580",
        "name": "15TH AVENUE + BEECH"
      },
      "geometry": {
        "type": "Point",
        "coordinates": [
          -87.871099373016,
          42.921662931406
        ]
      }
    },
    {
      "type": "Feature",
      "properties": {
        "id": "1581",
        "name": "15TH AVENUE + CHERRY"
      },
      "geometry": {
        "type": "Point",
        "coordinates": [
          -87.871205101851,
          42.919803885127
        ]
      }
    },
    {
      "type": "Feature",
      "properties": {
        "id": "1582",
        "name": "15TH AVENUE + CHESTNUT"
      },
      "geometry": {
        "type": "Point",
        "coordinates": [
          -87.871237395501,
          42.918075194555
        ]
      }
    },
    {
      "type": "Feature",
      "properties": {
        "id": "1579",
        "name": "15TH AVENUE + OAK CREEK PKWY"
      },
      "geometry": {
        "type": "Point",
        "coordinates": [
          -87.870929791004,
          42.923947571289
        ]
      }
    },
    {
      "type": "Feature",
      "properties": {
        "id": "1578",
        "name": "15TH AVENUE + PARK AVENUE"
      },
      "geometry": {
        "type": "Point",
        "coordinates": [
          -87.870775728835,
          42.92685197469
        ]
      }
    },
    {
      "type": "Feature",
      "properties": {
        "id": "1583",
        "name": "15TH AVENUE + RAWSON"
      },
      "geometry": {
        "type": "Point",
        "coordinates": [
          -87.871363488755,
          42.915830076202
        ]
      }
    },
    {
      "type": "Feature",
      "properties": {
        "id": "1507",
        "name": "CHICAGO AVENUE + DREXEL"
      },
      "geometry": {
        "type": "Point",
        "coordinates": [
          -87.865615000002,
          42.901148290865
        ]
      }
    },
    {
      "type": "Feature",
      "properties": {
        "id": "1518",
        "name": "CHICAGO AVENUE + MANISTIQUE"
      },
      "geometry": {
        "type": "Point",
        "coordinates": [
          -87.86562630225,
          42.902805079256
        ]
      }
    },
    {
      "type": "Feature",
      "properties": {
        "id": "360",
        "name": "CHICAGO AVENUE + MARION"
      },
      "geometry": {
        "type": "Point",
        "coordinates": [
          -87.865440000002,
          42.904564957383
        ]
      }
    },
    {
      "type": "Feature",
      "properties": {
        "id": "1515",
        "name": "CHICAGO AVENUE + MARQUETTE"
      },
      "geometry": {
        "type": "Point",
        "coordinates": [
          -87.86498,
          42.907576623919
        ]
      }
    },
    {
      "type": "Feature",
      "properties": {
        "id": "361",
        "name": "CHICAGO AVENUE + MARSHALL"
      },
      "geometry": {
        "type": "Point",
        "coordinates": [
          -87.86525,
          42.905844957327
        ]
      }
    },
    {
      "type": "Feature",
      "properties": {
        "id": "5172",
        "name": "CLEMENT + 3287 S."
      },
      "geometry": {
        "type": "Point",
        "coordinates": [
          -87.894368333334,
          42.984618287274
        ]
      }
    },
    {
      "type": "Feature",
      "properties": {
        "id": "5168",
        "name": "CLEMENT + DAKOTA"
      },
      "geometry": {
        "type": "Point",
        "coordinates": [
          -87.894284062171,
          42.992484677084
        ]
      }
    },
    {
      "type": "Feature",
      "properties": {
        "id": "5171",
        "name": "CLEMENT + EUCLID"
      },
      "geometry": {
        "type": "Point",
        "coordinates": [
          -87.89434145767,
          42.98653204364
        ]
      }
    },
    {
      "type": "Feature",
      "properties": {
        "id": "5173",
        "name": "CLEMENT + HOLT"
      },
      "geometry": {
        "type": "Point",
        "coordinates": [
          -87.894431666667,
          42.982416620702
        ]
      }
    },
    {
      "type": "Feature",
      "properties": {
        "id": "5169",
        "name": "CLEMENT + MANITOBA"
      },
      "geometry": {
        "type": "Point",
        "coordinates": [
          -87.894330728838,
          42.989756240096
        ]
      }
    },
    {
      "type": "Feature",
      "properties": {
        "id": "5167",
        "name": "CLEMENT + MONTANA"
      },
      "geometry": {
        "type": "Point",
        "coordinates": [
          -87.894273853175,
          42.9938636
        ]
      }
    },
    {
      "type": "Feature",
      "properties": {
        "id": "5174",
        "name": "CLEMENT + MORGAN"
      },
      "geometry": {
        "type": "Point",
        "coordinates": [
          -87.894448333334,
          42.981096620756
        ]
      }
    },
    {
      "type": "Feature",
      "properties": {
        "id": "5170",
        "name": "CLEMENT + OKLAHOMA"
      },
      "geometry": {
        "type": "Point",
        "coordinates": [
          -87.894342031085,
          42.988388392532
        ]
      }
    },
    {
      "type": "Feature",
      "properties": {
        "id": "5176",
        "name": "CLEMENT + SAVELAND"
      },
      "geometry": {
        "type": "Point",
        "coordinates": [
          -87.894543333335,
          42.976488287621
        ]
      }
    },
    {
      "type": "Feature",
      "properties": {
        "id": "5177",
        "name": "CLEMENT + TRIPOLI"
      },
      "geometry": {
        "type": "Point",
        "coordinates": [
          -87.894569115739,
          42.974751729059
        ]
      }
    },
    {
      "type": "Feature",
      "properties": {
        "id": "5175",
        "name": "CLEMENT + WILBUR"
      },
      "geometry": {
        "type": "Point",
        "coordinates": [
          -87.894505728836,
          42.97839371689
        ]
      }
    },
    {
      "type": "Feature",
      "properties": {
        "id": "8365",
        "name": "COLLEGE + 15TH AVENUE"
      },
      "geometry": {
        "type": "Point",
        "coordinates": [
          -87.871129999999,
          42.929920783939
        ]
      }
    },
    {
      "type": "Feature",
      "properties": {
        "id": "8364",
        "name": "COLLEGE + HOLLY"
      },
      "geometry": {
        "type": "Point",
        "coordinates": [
          -87.876661666666,
          42.92990828962
        ]
      }
    },
    {
      "type": "Feature",
      "properties": {
        "id": "8363",
        "name": "COLLEGE + PENNSYLVANIA"
      },
      "geometry": {
        "type": "Point",
        "coordinates": [
          -87.880247968916,
          42.92992078394
        ]
      }
    },
    {
      "type": "Feature",
      "properties": {
        "id": "5049",
        "name": "HOWARD + BRUST"
      },
      "geometry": {
        "type": "Point",
        "coordinates": [
          -87.889641875662,
          42.973631029439
        ]
      }
    },
    {
      "type": "Feature",
      "properties": {
        "id": "5047",
        "name": "HOWARD + CLEMENT"
      },
      "geometry": {
        "type": "Point",
        "coordinates": [
          -87.893727968914,
          42.973628121714
        ]
      }
    },
    {
      "type": "Feature",
      "properties": {
        "id": "2939",
        "name": "HOWARD + IOWA"
      },
      "geometry": {
        "type": "Point",
        "coordinates": [
          -87.884725364419,
          42.973673771139
        ]
      }
    },
    {
      "type": "Feature",
      "properties": {
        "id": "320",
        "name": "HOWARD + KANSAS"
      },
      "geometry": {
        "type": "Point",
        "coordinates": [
          -87.887248333333,
          42.973634954409
        ]
      }
    },
    {
      "type": "Feature",
      "properties": {
        "id": "5048",
        "name": "HOWARD + NEVADA"
      },
      "geometry": {
        "type": "Point",
        "coordinates": [
          -87.89192,
          42.973626621077
        ]
      }
    },
    {
      "type": "Feature",
      "properties": {
        "id": "2940",
        "name": "HOWARD + PENNSYLVANIA"
      },
      "geometry": {
        "type": "Point",
        "coordinates": [
          -87.879841666667,
          42.973559146261
        ]
      }
    },
    {
      "type": "Feature",
      "properties": {
        "id": "647",
        "name": "KINNICKINNIC + 1901 S."
      },
      "geometry": {
        "type": "Point",
        "coordinates": [
          -87.909425884259,
          43.010202696883
        ]
      }
    },
    {
      "type": "Feature",
      "properties": {
        "id": "648",
        "name": "KINNICKINNIC + BEECHER"
      },
      "geometry": {
        "type": "Point",
        "coordinates": [
          -87.907295937832,
          43.006706925405
        ]
      }
    },
    {
      "type": "Feature",
      "properties": {
        "id": "1434",
        "name": "KINNICKINNIC + CLEMENT"
      },
      "geometry": {
        "type": "Point",
        "coordinates": [
          -87.894336666666,
          42.994659085583
        ]
      }
    },
    {
      "type": "Feature",
      "properties": {
        "id": "1433",
        "name": "KINNICKINNIC + HERMAN"
      },
      "geometry": {
        "type": "Point",
        "coordinates": [
          -87.895591666666,
          42.995307314501
        ]
      }
    },
    {
      "type": "Feature",
      "properties": {
        "id": "1427",
        "name": "KINNICKINNIC + LINCOLN"
      },
      "geometry": {
        "type": "Point",
        "coordinates": [
          -87.904418697751,
          43.00305474794
        ]
      }
    },
    {
      "type": "Feature",
      "properties": {
        "id": "7822",
        "name": "KINNICKINNIC + MITCHELL"
      },
      "geometry": {
        "type": "Point",
        "coordinates": [
          -87.91020051984,
          43.01188082842
        ]
      }
    },
    {
      "type": "Feature",
      "properties": {
        "id": "1430",
        "name": "KINNICKINNIC + OTJEN"
      },
      "geometry": {
        "type": "Point",
        "coordinates": [
          -87.900758333334,
          42.998679570201
        ]
      }
    },
    {
      "type": "Feature",
      "properties": {
        "id": "1431",
        "name": "KINNICKINNIC + POTTER"
      },
      "geometry": {
        "type": "Point",
        "coordinates": [
          -87.898987968917,
          42.997126341181
        ]
      }
    },
    {
      "type": "Feature",
      "properties": {
        "id": "1432",
        "name": "KINNICKINNIC + RUSSELL - LOGAN"
      },
      "geometry": {
        "type": "Point",
        "coordinates": [
          -87.89687463558,
          42.995977904513
        ]
      }
    },
    {
      "type": "Feature",
      "properties": {
        "id": "1428",
        "name": "KINNICKINNIC + SMITH"
      },
      "geometry": {
        "type": "Point",
        "coordinates": [
          -87.902856666667,
          43.001199157433
        ]
      }
    },
    {
      "type": "Feature",
      "properties": {
        "id": "649",
        "name": "KINNICKINNIC + WARD"
      },
      "geometry": {
        "type": "Point",
        "coordinates": [
          -87.905653333335,
          43.00459759445
        ]
      }
    },
    {
      "type": "Feature",
      "properties": {
        "id": "1429",
        "name": "KINNICKINNIC + WILSON"
      },
      "geometry": {
        "type": "Point",
        "coordinates": [
          -87.901998333332,
          43.000178286611
        ]
      }
    },
    {
      "type": "Feature",
      "properties": {
        "id": "temp058",
        "name": "PENNSYLVANIA + 5601"
      },
      "geometry": {
        "type": "Point",
        "coordinates": [
          -87.879968333332,
          42.942148289094
        ]
      }
    },
    {
      "type": "Feature",
      "properties": {
        "id": "8360",
        "name": "PENNSYLVANIA + BIRCHWOOD"
      },
      "geometry": {
        "type": "Point",
        "coordinates": [
          -87.879999999999,
          42.940463289167
        ]
      }
    },
    {
      "type": "Feature",
      "properties": {
        "id": "2943",
        "name": "PENNSYLVANIA + BOLIVAR"
      },
      "geometry": {
        "type": "Point",
        "coordinates": [
          -87.879793279761,
          42.966525064322
        ]
      }
    },
    {
      "type": "Feature",
      "properties": {
        "id": "7438",
        "name": "PENNSYLVANIA + BOTTSFORD"
      },
      "geometry": {
        "type": "Point",
        "coordinates": [
          -87.87980406217,
          42.964836841316
        ]
      }
    },
    {
      "type": "Feature",
      "properties": {
        "id": "2942",
        "name": "PENNSYLVANIA + DENTON"
      },
      "geometry": {
        "type": "Point",
        "coordinates": [
          -87.879789008598,
          42.969060764781
        ]
      }
    },
    {
      "type": "Feature",
      "properties": {
        "id": "8362",
        "name": "PENNSYLVANIA + DONALD"
      },
      "geometry": {
        "type": "Point",
        "coordinates": [
          -87.880084271163,
          42.933696506905
        ]
      }
    },
    {
      "type": "Feature",
      "properties": {
        "id": "2945",
        "name": "PENNSYLVANIA + EDGERTON"
      },
      "geometry": {
        "type": "Point",
        "coordinates": [
          -87.879968333333,
          42.951906622009
        ]
      }
    },
    {
      "type": "Feature",
      "properties": {
        "id": "2947",
        "name": "PENNSYLVANIA + GRANGE"
      },
      "geometry": {
        "type": "Point",
        "coordinates": [
          -87.879968333332,
          42.944643288985
        ]
      }
    },
    {
      "type": "Feature",
      "properties": {
        "id": "3011",
        "name": "PENNSYLVANIA + HANSEN LOGISTICS WAY"
      },
      "geometry": {
        "type": "Point",
        "coordinates": [
          -87.88008958201,
          42.938520070883
        ]
      }
    },
    {
      "type": "Feature",
      "properties": {
        "id": "2946",
        "name": "PENNSYLVANIA + INTERNATIONAL DRIVE"
      },
      "geometry": {
        "type": "Point",
        "coordinates": [
          -87.879919999999,
          42.948553288818
        ]
      }
    },
    {
      "type": "Feature",
      "properties": {
        "id": "8361",
        "name": "PENNSYLVANIA + NORSE"
      },
      "geometry": {
        "type": "Point",
        "coordinates": [
          -87.880111093253,
          42.936746986045
        ]
      }
    },
    {
      "type": "Feature",
      "properties": {
        "id": "2941",
        "name": "PENNSYLVANIA + NORWICH"
      },
      "geometry": {
        "type": "Point",
        "coordinates": [
          -87.879777706351,
          42.972048613464
        ]
      }
    },
    {
      "type": "Feature",
      "properties": {
        "id": "7439",
        "name": "PENNSYLVANIA + VAN NORMAN"
      },
      "geometry": {
        "type": "Point",
        "coordinates": [
          -87.879798697751,
          42.962715175551
        ]
      }
    },
    {
      "type": "Feature",
      "properties": {
        "id": "7440",
        "name": "PENNSYLVANIA + WHITNALL"
      },
      "geometry": {
        "type": "Point",
        "coordinates": [
          -87.879910884258,
          42.960386621645
        ]
      }
    },
    {
      "type": "Feature",
      "properties": {
        "id": "2322",
        "name": "RAWSON + 1200 E."
      },
      "geometry": {
        "type": "Point",
        "coordinates": [
          -87.864644999998,
          42.915205434642
        ]
      }
    }
  ]
}