{
  "type": "FeatureCollection",
  "properties": {
    "id": "GRE",
    "name": "Bayshore-Airport MetroEXpress",
    "color": "#007044",
    "direction": "NORTH"
  },
  "features": [
    {
      "type": "Feature",
      "properties": {
        "id": "724",
        "name": "1ST STREET + GREENFIELD"
      },
      "geometry": {
        "type": "Point",
        "coordinates": [
          -87.911158644179,
          43.016989852625
        ]
      }
    },
    {
      "type": "Feature",
      "properties": {
        "id": "727",
        "name": "1ST STREET + NATIONAL"
      },
      "geometry": {
        "type": "Point",
        "coordinates": [
          -87.911168333333,
          43.023138285635
        ]
      }
    },
    {
      "type": "Feature",
      "properties": {
        "id": "2602",
        "name": "1ST STREET + PITTSBURGH"
      },
      "geometry": {
        "type": "Point",
        "coordinates": [
          -87.910989008598,
          43.029289266378
        ]
      }
    },
    {
      "type": "Feature",
      "properties": {
        "id": "728",
        "name": "1ST STREET + VIRGINIA"
      },
      "geometry": {
        "type": "Point",
        "coordinates": [
          -87.910989062168,
          43.026229952172
        ]
      }
    },
    {
      "type": "Feature",
      "properties": {
        "id": "2382",
        "name": "BARTLETT + HAMPTON"
      },
      "geometry": {
        "type": "Point",
        "coordinates": [
          -87.888374587302,
          43.103726865506
        ]
      }
    },
    {
      "type": "Feature",
      "properties": {
        "id": "1328",
        "name": "BRADY + ARLINGTON"
      },
      "geometry": {
        "type": "Point",
        "coordinates": [
          -87.895576666667,
          43.05291661771
        ]
      }
    },
    {
      "type": "Feature",
      "properties": {
        "id": "1327",
        "name": "BRADY + HUMBOLDT"
      },
      "geometry": {
        "type": "Point",
        "coordinates": [
          -87.898299791006,
          43.052916925134
        ]
      }
    },
    {
      "type": "Feature",
      "properties": {
        "id": "1971",
        "name": "BRADY + VAN BUREN - HOLTON"
      },
      "geometry": {
        "type": "Point",
        "coordinates": [
          -87.903554999999,
          43.052959857997
        ]
      }
    },
    {
      "type": "Feature",
      "properties": {
        "id": "1329",
        "name": "CAMBRIDGE + BRADY - FARWELL"
      },
      "geometry": {
        "type": "Point",
        "coordinates": [
          -87.89242948016,
          43.053373377325
        ]
      }
    },
    {
      "type": "Feature",
      "properties": {
        "id": "1357",
        "name": "HAMPTON + CUMBERLAND"
      },
      "geometry": {
        "type": "Point",
        "coordinates": [
          -87.892338697752,
          43.103952948722
        ]
      }
    },
    {
      "type": "Feature",
      "properties": {
        "id": "1359",
        "name": "HAMPTON + MARLBOROUGH"
      },
      "geometry": {
        "type": "Point",
        "coordinates": [
          -87.896948177909,
          43.103985615468
        ]
      }
    },
    {
      "type": "Feature",
      "properties": {
        "id": "683",
        "name": "HOWELL + BOLIVAR"
      },
      "geometry": {
        "type": "Point",
        "coordinates": [
          -87.909478542327,
          42.966371402122
        ]
      }
    },
    {
      "type": "Feature",
      "properties": {
        "id": "703",
        "name": "HOWELL + BRADLEY - CHASE"
      },
      "geometry": {
        "type": "Point",
        "coordinates": [
          -87.909366355819,
          42.977326029519
        ]
      }
    },
    {
      "type": "Feature",
      "properties": {
        "id": "711",
        "name": "HOWELL + DEWEY"
      },
      "geometry": {
        "type": "Point",
        "coordinates": [
          -87.904303279761,
          42.991668077397
        ]
      }
    },
    {
      "type": "Feature",
      "properties": {
        "id": "7268",
        "name": "HOWELL + EDGERTON"
      },
      "geometry": {
        "type": "Point",
        "coordinates": [
          -87.909531666667,
          42.951843288676
        ]
      }
    },
    {
      "type": "Feature",
      "properties": {
        "id": "7178",
        "name": "HOWELL + GRANGE"
      },
      "geometry": {
        "type": "Point",
        "coordinates": [
          -87.90935724008,
          42.948072441721
        ]
      }
    },
    {
      "type": "Feature",
      "properties": {
        "id": "706",
        "name": "HOWELL + HOLT"
      },
      "geometry": {
        "type": "Point",
        "coordinates": [
          -87.906899791004,
          42.982381514135
        ]
      }
    },
    {
      "type": "Feature",
      "properties": {
        "id": "715",
        "name": "HOWELL + HOMER"
      },
      "geometry": {
        "type": "Point",
        "coordinates": [
          -87.904806822088,
          42.998692106599
        ]
      }
    },
    {
      "type": "Feature",
      "properties": {
        "id": "701",
        "name": "HOWELL + HOWARD"
      },
      "geometry": {
        "type": "Point",
        "coordinates": [
          -87.909384062171,
          42.973646512835
        ]
      }
    },
    {
      "type": "Feature",
      "properties": {
        "id": "7270",
        "name": "HOWELL + LAYTON"
      },
      "geometry": {
        "type": "Point",
        "coordinates": [
          -87.909505364419,
          42.959012584757
        ]
      }
    },
    {
      "type": "Feature",
      "properties": {
        "id": "717",
        "name": "HOWELL + LINCOLN"
      },
      "geometry": {
        "type": "Point",
        "coordinates": [
          -87.904720884261,
          43.002863773621
        ]
      }
    },
    {
      "type": "Feature",
      "properties": {
        "id": "8517",
        "name": "HOWELL + OHIO"
      },
      "geometry": {
        "type": "Point",
        "coordinates": [
          -87.905734373014,
          42.984602590195
        ]
      }
    },
    {
      "type": "Feature",
      "properties": {
        "id": "709",
        "name": "HOWELL + OKLAHOMA"
      },
      "geometry": {
        "type": "Point",
        "coordinates": [
          -87.904410101852,
          42.988224679438
        ]
      }
    },
    {
      "type": "Feature",
      "properties": {
        "id": "713",
        "name": "HOWELL + ROSEDALE - RUSSELL"
      },
      "geometry": {
        "type": "Point",
        "coordinates": [
          -87.90445734193,
          42.995501029903
        ]
      }
    },
    {
      "type": "Feature",
      "properties": {
        "id": "8516",
        "name": "HOWELL + VAN NORMAN"
      },
      "geometry": {
        "type": "Point",
        "coordinates": [
          -87.9095,
          42.962643288212
        ]
      }
    },
    {
      "type": "Feature",
      "properties": {
        "id": "699",
        "name": "HOWELL + WATERFORD"
      },
      "geometry": {
        "type": "Point",
        "coordinates": [
          -87.909404999999,
          42.970022696032
        ]
      }
    },
    {
      "type": "Feature",
      "properties": {
        "id": "719",
        "name": "KINNICKINNIC + BAY"
      },
      "geometry": {
        "type": "Point",
        "coordinates": [
          -87.906847132935,
          43.006233773909
        ]
      }
    },
    {
      "type": "Feature",
      "properties": {
        "id": "722",
        "name": "KINNICKINNIC + MITCHELL"
      },
      "geometry": {
        "type": "Point",
        "coordinates": [
          -87.910379791006,
          43.012242309454
        ]
      }
    },
    {
      "type": "Feature",
      "properties": {
        "id": "1365",
        "name": "MARLBOROUGH + BIRCH - IDLEWILD"
      },
      "geometry": {
        "type": "Point",
        "coordinates": [
          -87.901817449073,
          43.116223443545
        ]
      }
    },
    {
      "type": "Feature",
      "properties": {
        "id": "1363",
        "name": "MARLBOROUGH + HENRY CLAY"
      },
      "geometry": {
        "type": "Point",
        "coordinates": [
          -87.898474324734,
          43.111070367674
        ]
      }
    },
    {
      "type": "Feature",
      "properties": {
        "id": "1362",
        "name": "MARLBOROUGH + LANCASTER"
      },
      "geometry": {
        "type": "Point",
        "coordinates": [
          -87.89742005357,
          43.109321361324
        ]
      }
    },
    {
      "type": "Feature",
      "properties": {
        "id": "1364",
        "name": "MARLBOROUGH + LEXINGTON"
      },
      "geometry": {
        "type": "Point",
        "coordinates": [
          -87.899936511242,
          43.113124610314
        ]
      }
    },
    {
      "type": "Feature",
      "properties": {
        "id": "7162",
        "name": "MITCHELL INT. AIRPORT + BAGGAGE CLAIM"
      },
      "geometry": {
        "type": "Point",
        "coordinates": [
          -87.902960835977,
          42.947193288876
        ]
      }
    },
    {
      "type": "Feature",
      "properties": {
        "id": "7168",
        "name": "MITCHELL INT. AIRPORT + CELL PHONE LOT"
      },
      "geometry": {
        "type": "Point",
        "coordinates": [
          -87.903762706349,
          42.946046255915
        ]
      }
    },
    {
      "type": "Feature",
      "properties": {
        "id": "1345",
        "name": "OAKLAND + BEVERLY"
      },
      "geometry": {
        "type": "Point",
        "coordinates": [
          -87.887480262566,
          43.085910360677
        ]
      }
    },
    {
      "type": "Feature",
      "properties": {
        "id": "1335",
        "name": "OAKLAND + BRADFORD"
      },
      "geometry": {
        "type": "Point",
        "coordinates": [
          -87.887974062168,
          43.063621930157
        ]
      }
    },
    {
      "type": "Feature",
      "properties": {
        "id": "1347",
        "name": "OAKLAND + CAPITOL"
      },
      "geometry": {
        "type": "Point",
        "coordinates": [
          -87.887411511244,
          43.088993196732
        ]
      }
    },
    {
      "type": "Feature",
      "properties": {
        "id": "1354",
        "name": "OAKLAND + CUMBERLAND"
      },
      "geometry": {
        "type": "Point",
        "coordinates": [
          -87.887346618385,
          43.100916783393
        ]
      }
    },
    {
      "type": "Feature",
      "properties": {
        "id": "1343",
        "name": "OAKLAND + EDGEWOOD"
      },
      "geometry": {
        "type": "Point",
        "coordinates": [
          -87.887608022485,
          43.081804774812
        ]
      }
    },
    {
      "type": "Feature",
      "properties": {
        "id": "1341",
        "name": "OAKLAND + HARTFORD"
      },
      "geometry": {
        "type": "Point",
        "coordinates": [
          -87.887722867063,
          43.077548868341
        ]
      }
    },
    {
      "type": "Feature",
      "properties": {
        "id": "1331",
        "name": "OAKLAND + KANE"
      },
      "geometry": {
        "type": "Point",
        "coordinates": [
          -87.891285573414,
          43.055655167229
        ]
      }
    },
    {
      "type": "Feature",
      "properties": {
        "id": "1348",
        "name": "OAKLAND + KENMORE"
      },
      "geometry": {
        "type": "Point",
        "coordinates": [
          -87.88740083598,
          43.090780860395
        ]
      }
    },
    {
      "type": "Feature",
      "properties": {
        "id": "1383",
        "name": "OAKLAND + KENSINGTON"
      },
      "geometry": {
        "type": "Point",
        "coordinates": [
          -87.887368076057,
          43.098136615815
        ]
      }
    },
    {
      "type": "Feature",
      "properties": {
        "id": "257",
        "name": "OAKLAND + KENWOOD"
      },
      "geometry": {
        "type": "Point",
        "coordinates": [
          -87.887821039682,
          43.074505994473
        ]
      }
    },
    {
      "type": "Feature",
      "properties": {
        "id": "1332",
        "name": "OAKLAND + LAFAYETTE"
      },
      "geometry": {
        "type": "Point",
        "coordinates": [
          -87.889743333332,
          43.057260662374
        ]
      }
    },
    {
      "type": "Feature",
      "properties": {
        "id": "1351",
        "name": "OAKLAND + LAKE BLUFF"
      },
      "geometry": {
        "type": "Point",
        "coordinates": [
          -87.887389533731,
          43.095858866404
        ]
      }
    },
    {
      "type": "Feature",
      "properties": {
        "id": "1339",
        "name": "OAKLAND + LOCUST"
      },
      "geometry": {
        "type": "Point",
        "coordinates": [
          -87.887867186506,
          43.07091319402
        ]
      }
    },
    {
      "type": "Feature",
      "properties": {
        "id": "1344",
        "name": "OAKLAND + MENLO"
      },
      "geometry": {
        "type": "Point",
        "coordinates": [
          -87.887564480157,
          43.084054601433
        ]
      }
    },
    {
      "type": "Feature",
      "properties": {
        "id": "1338",
        "name": "OAKLAND + NEWBERRY"
      },
      "geometry": {
        "type": "Point",
        "coordinates": [
          -87.887876929234,
          43.069121437145
        ]
      }
    },
    {
      "type": "Feature",
      "properties": {
        "id": "1333",
        "name": "OAKLAND + NORTH AVENUE"
      },
      "geometry": {
        "type": "Point",
        "coordinates": [
          -87.888016457673,
          43.060024859057
        ]
      }
    },
    {
      "type": "Feature",
      "properties": {
        "id": "1337",
        "name": "OAKLAND + PARK PLACE"
      },
      "geometry": {
        "type": "Point",
        "coordinates": [
          -87.887930573414,
          43.067273012884
        ]
      }
    },
    {
      "type": "Feature",
      "properties": {
        "id": "1349",
        "name": "OAKLAND + WOOD"
      },
      "geometry": {
        "type": "Point",
        "coordinates": [
          -87.887379378306,
          43.092839037519
        ]
      }
    },
    {
      "type": "Feature",
      "properties": {
        "id": "7754",
        "name": "PORT WASHINGTON ROAD + 5900 N."
      },
      "geometry": {
        "type": "Point",
        "coordinates": [
          -87.914633906748,
          43.123869286603
        ]
      }
    },
    {
      "type": "Feature",
      "properties": {
        "id": "6173",
        "name": "PORT WASHINGTON ROAD + GLEN BAY"
      },
      "geometry": {
        "type": "Point",
        "coordinates": [
          -87.916351093253,
          43.121656375254
        ]
      }
    },
    {
      "type": "Feature",
      "properties": {
        "id": "1370",
        "name": "SILVER SPRING + BAYSHORE - MOHAWK"
      },
      "geometry": {
        "type": "Point",
        "coordinates": [
          -87.913965573413,
          43.118719285499
        ]
      }
    },
    {
      "type": "Feature",
      "properties": {
        "id": "1367",
        "name": "SILVER SPRING + DIVERSEY - CONSAUL"
      },
      "geometry": {
        "type": "Point",
        "coordinates": [
          -87.904075208995,
          43.118525369747
        ]
      }
    },
    {
      "type": "Feature",
      "properties": {
        "id": "1369",
        "name": "SILVER SPRING + LYDELL"
      },
      "geometry": {
        "type": "Point",
        "coordinates": [
          -87.911588124337,
          43.118668201187
        ]
      }
    },
    {
      "type": "Feature",
      "properties": {
        "id": "1371",
        "name": "SILVER SPRING + PORT WASHINGTON ROAD"
      },
      "geometry": {
        "type": "Point",
        "coordinates": [
          -87.916303333333,
          43.118745128564
        ]
      }
    },
    {
      "type": "Feature",
      "properties": {
        "id": "1368",
        "name": "SILVER SPRING + SANTA MONICA"
      },
      "geometry": {
        "type": "Point",
        "coordinates": [
          -87.907263697752,
          43.118573703096
        ]
      }
    },
    {
      "type": "Feature",
      "properties": {
        "id": "1320",
        "name": "WATER STREET + CHERRY"
      },
      "geometry": {
        "type": "Point",
        "coordinates": [
          -87.910771146824,
          43.047779176289
        ]
      }
    },
    {
      "type": "Feature",
      "properties": {
        "id": "731",
        "name": "WATER STREET + CHICAGO"
      },
      "geometry": {
        "type": "Point",
        "coordinates": [
          -87.909287449072,
          43.032472012513
        ]
      }
    },
    {
      "type": "Feature",
      "properties": {
        "id": "1318",
        "name": "WATER STREET + JUNEAU"
      },
      "geometry": {
        "type": "Point",
        "coordinates": [
          -87.910912920635,
          43.045597299521
        ]
      }
    },
    {
      "type": "Feature",
      "properties": {
        "id": "735",
        "name": "WATER STREET + MICHIGAN"
      },
      "geometry": {
        "type": "Point",
        "coordinates": [
          -87.908895573413,
          43.037304364132
        ]
      }
    },
    {
      "type": "Feature",
      "properties": {
        "id": "1323",
        "name": "WATER STREET + PLEASANT"
      },
      "geometry": {
        "type": "Point",
        "coordinates": [
          -87.906262604498,
          43.050608003999
        ]
      }
    },
    {
      "type": "Feature",
      "properties": {
        "id": "733",
        "name": "WATER STREET + SAINT PAUL"
      },
      "geometry": {
        "type": "Point",
        "coordinates": [
          -87.908694791004,
          43.034930636028
        ]
      }
    },
    {
      "type": "Feature",
      "properties": {
        "id": "1317",
        "name": "WATER STREET + STATE"
      },
      "geometry": {
        "type": "Point",
        "coordinates": [
          -87.91058547156,
          43.04333572842
        ]
      }
    },
    {
      "type": "Feature",
      "properties": {
        "id": "738",
        "name": "WATER STREET + WELLS"
      },
      "geometry": {
        "type": "Point",
        "coordinates": [
          -87.909563853173,
          43.04094025285
        ]
      }
    },
    {
      "type": "Feature",
      "properties": {
        "id": "736",
        "name": "WATER STREET + WISCONSIN"
      },
      "geometry": {
        "type": "Point",
        "coordinates": [
          -87.909013590611,
          43.038356126667
        ]
      }
    }
  ]
}